City,State,counts,lat,long
((HOAX??)),PA,1,,
((Location no revealed by witness)),CA,1,,
((Location unspecified; rural area)),WY,1,,
((Unknown)),NJ,1,,
((Unspecified location)),IL,1,,
(City not specified),MO,1,,
(Unspecified location),TX,1,,
(above mountains in airplane),UT,1,,
(observed from airplane),IN,1,,
29 Palms,CA,2,,
Abbeville,LA,3,29.7998,-92.1862
Abbeville,SC,1,34.1846,-82.4333
Abbotsford (Canada),BC,9,,
Abbotsfort (Canada),BC,1,,
Aberdeen,MD,8,39.4983,-76.1989
Aberdeen,NC,2,35.1233,-79.4603
Aberdeen,NJ,3,,
Aberdeen,SD,3,45.4675,-98.5275
Aberdeen,WA,6,47.0918,-123.8526
Aberdeen Gardens,WA,1,,
Abilene,KS,1,38.9217,-97.2137
Abilene,TX,25,32.6133,-99.6932
Abingdon,MD,5,39.4734,-76.2870
Abingdon,VA,7,36.7697,-82.0905
Abington,MA,1,42.1194,-70.9594
Abington,PA,3,40.1236,-75.1262
Abiquiu,NM,1,36.1459,-106.2370
Abita Springs,LA,1,30.5009,-89.9566
Absarokee,MT,1,45.5253,-109.6007
Absecon,NJ,1,39.4178,-74.5030
Absecon (most reports),NJ,1,,
Accokeek (on Hwy 210),MD,1,,
Accomac,VA,1,37.6704,-75.6570
Accord,NY,1,41.8245,-74.2455
Achusnet,MA,1,,
Ackerman,MS,1,33.3633,-89.2356
Acme,MI,1,44.7717,-85.5015
Acme,PA,1,40.1150,-79.4455
Acton,CA,2,34.4679,-118.1824
Acton,IN,1,,
Acton,MA,2,42.4842,-71.4395
Acton,ME,1,43.5257,-70.9164
Acton (Canada),ON,2,,
Acton Vale (Canada),QC,1,,
Acton or Palmdale,CA,1,,
Acusnet,MA,2,,
Acworth,GA,15,34.0321,-84.7026
Acworth,NH,1,43.2354,-72.2959
Ada,KS,1,,
Ada,MI,2,42.9644,-85.4795
Ada,MN,1,47.3537,-96.5258
Ada,OK,6,34.8227,-96.7530
Adair,IA,1,41.5173,-94.6556
Adair Village,OR,4,,
Adairsville,GA,4,34.3691,-84.9301
Adams,MA,1,42.6271,-73.1187
Adams,NY,1,43.8075,-76.0411
Adams,WI,3,43.8903,-89.8390
Adams County,OH,1,,
Adams County,WI,1,,
Adams County (on Co. Hwy. D),WI,1,,
Adams/Friendship (in eastern sky),WI,1,,
Adamsville,AL,3,33.5929,-86.9940
Adamsville,FL,1,,
Adamsville,PA,1,41.4945,-80.3823
Adamsville,TN,1,35.2612,-88.3920
Addison,AL,1,34.2027,-87.2048
Addison,IL,3,41.9309,-88.0140
Addison,PA,1,39.7649,-79.3546
Addison,TX,2,32.9598,-96.8385
Addy,WA,1,48.3487,-117.9393
Adel,GA,1,31.1192,-83.4283
Adel,IA,3,41.6237,-94.0425
Adel,OK,1,,
Adelaide (Australia),SA,2,,
Adelaide (South Australia),OH,1,,
Adelaide (South Australia),SA,1,,
Adelanto,CA,3,34.6657,-117.5013
Adkins,TX,1,29.3406,-98.2295
Adrian,MI,5,41.8935,-84.0613
Adrian,MN,1,43.6089,-95.9342
Adrian,OR,1,43.4643,-117.2651
Adrian,PA,1,40.9006,-79.5181
Advance,NC,4,35.9446,-80.4376
Afton,MI,2,45.3224,-84.4655
Afton,MO,4,,
Afton,OK,1,36.6318,-94.9101
Afton,TN,1,36.2253,-82.7399
Afton,VA,1,37.9750,-78.8244
Afton (St. Louis Co.),MO,1,,
Agawam,MA,2,42.0658,-72.6209
Agoura Hills,CA,5,34.1435,-118.7632
Agra,OK,1,35.8698,-96.8839
Aguanga,CA,1,33.5088,-116.8143
Aguila,AZ,1,33.8090,-113.1876
Agusta,ME,1,,
Ahmadi (Kuwait),AL,1,,
Ahwatukee,AZ,3,,
Ahwatukee/Phoenix/Gilbert/Chandler,AZ,1,,
Ahwatukee/Phx,AZ,1,,
Aiea,HI,4,21.3963,-157.8964
Aiken,SC,10,33.6019,-81.6611
Aiken County (rural),SC,1,,
Ainsworth,IA,3,41.3372,-91.5514
Ainsworth,NE,4,42.4291,-99.8183
Air Ronge (Canada),SK,1,,
Airdrie (Canada),AB,5,,
Airmont,NY,1,,
Airville/Pequea,PA,1,,
Airway Heights,WA,3,47.6355,-117.5825
Airway Heights (rural; N of Fairchild AFB),WA,1,,
Aitkin,MN,1,46.4555,-93.6414
Aitkins,MN,1,,
Ajax (Canada),ON,9,,
Ajax/Toronto (Canada),ON,1,,
Ajo,AZ,5,32.3422,-112.7541
Ajo (and southern Arizona),AZ,1,,
Akron,NY,2,43.0348,-78.5079
Akron,OH,34,41.0442,-81.5254
Akron (Ellet),OH,1,,
Alabama (above; in flight),AL,1,,
"Alabama (in-flight @ 35,000')",GA,1,,
Alabaster,AL,7,33.2187,-86.7835
Alachua,FL,3,29.8214,-82.4909
Alameda,CA,11,37.7735,-122.2785
Alamo,CA,2,37.8529,-121.9900
Alamo,TN,3,35.8216,-89.1900
Alamo,TX,1,26.1984,-98.1152
Alamogordo,NM,12,32.7699,-106.0990
Alamosa,CO,1,37.4553,-105.7715
Alanson,MI,2,45.4416,-84.7686
Alaska,AK,1,,
Alaska cruise (Norwegian Star),AK,1,,
Alaska??,OK,1,,
Albany,GA,7,31.5813,-84.1519
Albany,KY,1,36.7517,-85.1217
Albany,ME,1,,
Albany,NY,30,42.7452,-73.8103
Albany,OH,2,39.1951,-82.2122
Albany,OR,34,44.6334,-123.1396
Albany,TX,1,32.7549,-99.3370
Albany,WI,1,42.7320,-89.4446
Albany (3 hrs W of; on I-90 near Exit 44),NY,1,,
Albany (near),NY,2,,
Albany (near),OR,1,,
Albany/Colonie,NY,1,,
Albany/Peacan City,GA,1,,
Albas (Canada),BC,1,,
Albemarle,NC,5,35.3385,-80.2100
Albemarle County,MD,1,,
Alberqurqe,NM,1,,
Albert Lake,OR,1,,
Albert Lea,MN,1,43.6807,-93.2889
Alberta (Canada),AB,1,,
Alberta (rural),AB,1,,
Alberta Beach,AB,1,,
Alberton,MT,2,46.8820,-114.5685
Albertville,AL,2,34.2516,-86.2570
Albertville,MN,1,45.2518,-93.6641
Albia,IA,1,41.0298,-92.8118
Albion,IL,1,38.3499,-88.0878
Albion,IN,2,41.3598,-85.4275
Albion,ME,1,44.5206,-69.4442
Albion,MI,2,42.2941,-84.7880
Albion,NY,1,43.2349,-78.2004
Albion,WI,1,,
Albrightsville,PA,1,40.9709,-75.5626
Albuquerque,NM,217,35.0846,-106.6516
Albuquerque (Kirtland AFB),NM,1,,
Albuquerque (near),NM,2,,
Albuquerque (southeast),NM,1,,
Albuquerque/Aiport,NM,1,,
Alburtis,PA,1,40.4820,-75.6424
Alcalde,NM,1,36.0894,-105.9881
Alcester,SD,2,43.0039,-96.6101
Alcoa,TN,1,35.8006,-83.9846
Alcova,WY,1,42.5357,-106.8815
Alden,IL,1,42.45,-88.53
Alden,NY,2,42.8997,-78.4935
Alden Township,WI,1,,
Aldie,VA,2,38.9608,-77.6044
Aledo,IL,2,41.1983,-90.7224
Aledo,TX,2,32.6888,-97.6424
Alex,OK,1,34.9804,-97.7573
Alexander,AR,3,34.6590,-92.5487
Alexandria,IN,2,40.2391,-85.6738
Alexandria,KY,1,38.9158,-84.3864
Alexandria,LA,11,31.2557,-92.4742
Alexandria,MN,3,45.8933,-95.3971
Alexandria,NH,1,,
Alexandria,NY,1,,
Alexandria,VA,35,38.8184,-77.0604
Alexandria (Canada),ON,1,,
Alexandria (Independent City??),VA,1,,
Alexandria Bay,NY,1,44.3153,-75.9309
Alfalfa,OR,1,,
Alford,FL,1,30.6465,-85.3891
Alfred,ME,2,43.4963,-70.6863
Algiers,LA,1,,
Algodones,NM,2,35.3606,-106.3742
Algoma,WI,3,44.6285,-87.4720
Algona,IA,2,43.0712,-94.1970
Algona,WA,1,,
Algonac,MI,3,42.6352,-82.5825
Algonquin,IL,10,42.1581,-88.3123
Algonquin Highlands (Canada),ON,1,,
Algonquin Park (Ontario) (Canada),ON,1,,
Algood,TN,2,,
Alhambra,CA,4,34.0905,-118.1346
Alice,TX,5,27.6810,-98.0842
Aliquippa,PA,3,40.5891,-80.3266
Aliso Viejo,CA,11,33.5736,-117.7296
All over,CA,1,,
Allegan,MI,2,42.5277,-85.8591
Allegany (near),NY,1,,
Allegheny State Park,NY,1,,
Allen,MI,1,41.9528,-84.7679
Allen,TX,17,33.0830,-96.6099
Allen Park,MI,6,42.2620,-83.2081
Allendale,CA,1,,
Allendale,MI,3,42.9792,-85.9383
Allendorf,IA,1,,
Allenhurst,GA,2,31.7560,-81.6052
Allenton,WI,1,43.4691,-88.3512
Allentown,NJ,2,40.1397,-74.5484
Allentown,PA,41,40.6081,-75.4689
Allentown (Upper Macungie Twsp),PA,1,,
Allentown (east side),PA,1,,
Allenwood,NJ,1,40.1433,-74.1033
"Alleouz (Near Greene isle park, Facing Bellevue st)",WI,1,,
Alliance,NE,1,42.2204,-103.1614
Alliance,OH,2,40.9173,-81.1318
Alligator Alley,FL,4,,
Alligator Alley/Miami,FL,1,,
Alligator Point,FL,3,,
Allison,TX,1,35.6420,-100.0920
Allison Park,PA,5,40.5764,-79.9506
Alliston,ON,1,,
Alliston (Canada),ON,5,,
"Allouez (near Greene Isle Park entrance, Facing Bellevue st)",WI,1,,
Alloway,NJ,2,39.5566,-75.3602
Allston,MA,1,42.3576,-71.1289
Allyn,WA,2,47.3621,-122.8718
Alma,AR,5,35.4637,-94.1939
Alma,CO,2,39.3073,-106.1051
Alma,MI,1,43.3791,-84.6571
Alma,WI,1,44.3787,-91.7755
Alma Center,WI,2,44.4585,-90.9560
Alma KOA,AR,1,,
Almond,NC,1,35.3839,-83.6374
Almond,WI,1,44.2766,-89.3485
Almont,CO,2,38.8043,-106.6305
Aloha,OR,10,,
Aloharetta,GA,1,,
Alpaugh,CA,1,35.8694,-119.4982
Alpena,MI,1,45.0733,-83.4729
Alpha,IL,1,41.1949,-90.3720
Alpharetta,GA,20,34.1286,-84.2949
Alpheretta,GA,1,,
Alpine,CA,2,32.7899,-116.7112
Alpine,KY,1,,
Alpine,TX,4,29.9112,-103.4604
Alpine,UT,4,40.5075,-111.6998
Alpine,WY,1,43.0622,-110.8116
Alpine (near),UT,1,,
Alsea,OR,1,44.3300,-123.6207
Alsea (above),OR,1,,
Alsip,IL,3,41.6710,-87.7370
Alstead,NH,1,43.1292,-72.3285
Alta Loma,CA,3,,
Altadena,CA,3,34.1963,-118.1356
Altamont,NY,1,42.6904,-74.0341
Altamonte Springs,FL,14,28.6638,-81.3672
Altmar,NY,1,43.4985,-75.9769
Alto,GA,1,34.4475,-83.5778
Alto,MI,1,42.8224,-85.4071
Alto,NM,5,33.4247,-105.6679
Alto,TN,1,,
Alto,TX,1,31.6477,-95.0887
Altomont,NY,1,,
Alton,IL,7,38.9391,-90.1321
Alton,MO,1,36.7500,-91.3989
Alton,NH,6,43.4739,-71.2325
Alton Bay,NH,1,43.5059,-71.2742
Altoona,AL,1,34.0456,-86.2860
Altoona,IA,6,41.6435,-93.4623
Altoona,KS,1,37.5145,-95.6341
Altoona,PA,11,40.5348,-78.4265
Alturas,CA,1,41.5132,-120.5156
Altus,OK,1,34.6888,-99.3444
Alva,OK,1,36.8549,-98.7642
Alvadore,OR,1,44.1269,-123.2609
Alvarado,TX,2,32.4315,-97.1975
Alvaton,KY,1,36.8590,-86.3481
Alvin,TX,11,29.3938,-95.2451
Alvord,TX,1,33.3535,-97.6711
Amado,AZ,1,31.6649,-111.0641
Amagansett,NY,2,40.9922,-72.0973
Amanda,OH,1,39.6485,-82.7493
Amargosa Valley,NV,1,37.0805,-116.5304
Amarillo,TX,23,35.2053,-101.8400
Amarillo (Hwy. 140),TX,1,,
Amarillo (local area and SE),TX,1,,
Amarillo (near),TX,1,,
Amber,OK,1,35.1239,-97.8084
Amberg,WI,1,45.4998,-88.0034
Ambler,PA,1,40.1843,-75.2156
Amboy,CA,2,34.6867,-115.8741
Amboy,IN,1,40.6355,-85.9489
Amboy,WA,2,45.9762,-122.4008
Ambridge,PA,1,40.6028,-80.2094
Ambrose,GA,1,31.5569,-83.0188
Amelia,OH,7,39.0150,-84.2016
Amelia Island,FL,2,,
Amenia,NY,1,41.8503,-73.5777
American Canyon,CA,4,38.2036,-122.2319
American Fork,UT,8,40.4060,-111.8290
Americus,GA,2,32.0133,-84.1202
Americus,KS,1,38.5459,-96.2760
Amery,WI,4,45.3437,-92.3649
Amery/Star Prairie,WI,1,,
Ames,IA,16,42.0303,-93.5856
Ames (north of),IA,1,,
Amesbury,MA,4,42.8532,-70.9518
Amesbury (past),MA,2,,
Amesbury area,MA,1,,
Amherst,MA,9,42.3729,-72.4509
Amherst,ME,1,,
Amherst,NY,7,,
Amherst,VA,10,37.6235,-79.0923
Amherst/Tonawanda,NY,1,,
Amissville/Rixeyville,VA,2,,
Amite,LA,2,30.7393,-90.5633
Amity,OR,1,45.1021,-123.2333
Amityville,NY,2,40.6865,-73.4105
Ammon,ID,3,,
Amory,MS,3,33.9699,-88.4177
Amsterdam,CA,1,,
Amsterdam,NY,3,42.9405,-74.1694
Amston (Hebron),CT,1,,
Anacoco,LA,1,31.1945,-93.4242
Anaconda,MT,2,46.1255,-113.0676
Anacortes,WA,16,48.5181,-122.6779
Anaheim,CA,60,33.8478,-117.9573
Anaheim (NE of),CA,1,,
Anaheim Hills,CA,2,,
Anaheim Hills/Yorba Linda/Imperial Blvd close to 91 freeway,CA,1,,
Anaheim/Brea/Diamond Bar,CA,1,,
Anahiem,CA,1,,
Anahola,HI,2,22.1649,-159.3510
Anahuac,TX,2,29.7072,-94.5715
Ancaster (Canada),ON,2,,
Anchor Point,AK,2,59.8116,-151.6403
Anchorage,AK,101,61.2225,-149.8677
Anchorage/Eagle River (between),AK,1,,
Andalusia,AL,3,31.2235,-86.6019
Anderson,CA,12,40.4506,-122.3164
Anderson,IN,10,40.1133,-85.7675
Anderson,MO,2,36.6774,-94.4540
Anderson,SC,16,34.4909,-82.6086
Anderson or Oconee,SC,1,,
Andersonville,TN,1,36.2299,-84.0216
Andover,CT,1,41.7319,-72.3739
Andover,KS,4,37.6941,-97.1052
Andover,MA,3,42.6496,-71.1660
Andover,MN,4,45.2549,-93.2744
Andover,NJ,2,40.9620,-74.7554
Andover,NY,1,42.1488,-77.7578
Andover,OH,1,41.6237,-80.6074
Andreas,PA,1,40.7444,-75.8175
Andrews,SC,3,33.4555,-79.6349
Angel Fire,NM,1,36.3935,-105.1775
Angels Camp,CA,1,38.0436,-120.5800
Angelus Oaks,CA,1,34.1599,-116.8809
Angier,NC,5,35.4810,-78.6920
Angleton,TX,5,29.1753,-95.4531
Angola,IN,5,41.6620,-85.0005
Angola,NY,5,42.6366,-79.0275
Angoon,AK,1,57.7126,-133.6697
Ankeny,IA,8,41.7249,-93.5615
Ann Arbor,MI,26,42.2694,-83.8518
Ann Arbor (Milan),MI,1,,
Ann Arbor/Saline,MI,1,,
Anna,TX,2,33.3399,-96.5277
Anna Maria Island,FL,1,,
Annandale,MN,2,45.2608,-94.1329
Annandale,NJ,5,40.6331,-74.8917
Annandale,VA,2,38.8378,-77.2103
Annapolis,MD,26,38.9934,-76.5470
Annapolis (near),MD,1,,
Annapolis Basin (Canada),NS,1,,
Annapolis Royal,NS,1,,
Annapolis Valley (Canada),NS,1,,
Annapolis/Crofton,MD,1,,
Anneville,PA,1,,
Anniston,AL,10,33.6771,-85.9199
Annville,PA,3,40.3629,-76.5753
Anoka,MN,5,45.2816,-93.4298
Anola (Canada),MB,3,,
Ansel Adams wilderness,CA,1,,
Anson,TX,1,32.7520,-99.8959
Ansonia,CT,4,41.3435,-73.0703
Ansted,WV,3,38.1484,-81.1040
Antelope,CA,10,38.7152,-121.3561
Antelope Acres,CA,1,,
Antelope Island,UT,1,,
Antelope Valley,CA,1,,
Anthem,AZ,9,,
Anthony,FL,2,29.3051,-82.0763
Anthony,KS,3,37.1047,-98.0211
Anthony,NM,2,31.9906,-106.6519
Antigo,WI,1,45.1059,-89.1910
Antinito,CO,1,,
Antioch,CA,38,37.9898,-121.8073
Antioch,IL,7,42.4559,-88.0759
Antioch,TN,7,36.0601,-86.6725
Antioch Community,SC,1,,
Antlers,OK,1,34.3317,-95.6455
Antonito,CO,1,37.1987,-106.1984
Antonito (30 miles East of my location),CO,1,,
Antrim Township,MI,1,,
Antwep,OH,1,,
Antwerp,OH,1,41.1908,-84.7175
Anza,CA,1,33.5574,-116.6959
Anza Borrego,CA,1,,
Anza Borrego State Park,CA,1,,
Anza and Garner Valley (near),CA,1,,
Apache Junction,AZ,23,33.4223,-111.5477
Apalachicola,FL,4,29.7267,-85.0889
Apex,NC,10,35.7115,-78.9187
Apex/Cary,NC,1,,
Apison,TN,1,35.0206,-85.0205
Apollo,PA,5,40.5479,-79.5559
Apollo Beach,FL,4,27.7642,-82.4010
Apopka,FL,14,28.6630,-81.5174
Apopka (near),FL,1,,
Appalachia,VA,1,36.9457,-82.7658
Appalachin,NY,1,,
Applachian Mountains,NC,1,,
Apple River,IL,1,42.4536,-90.1202
Apple Valley,CA,16,34.6026,-117.1198
Apple Valley,MN,6,,
Apple Valley,UT,1,,
Apple Valley (Panoche Road),CA,1,,
Apple Valley (above),CA,1,,
Apple Valley/Lakeville/Burnsville,MN,1,,
Apple valley,MN,1,,
Applegate,OR,2,,
Appleton,NY,1,43.3037,-78.6358
Appleton,WI,25,44.2758,-88.3745
Appleton (Lawrence University),WI,1,,
Appling,GA,3,33.6003,-82.3035
Appomattox,VA,1,37.3547,-78.7660
Aptos,CA,6,36.9774,-121.8985
Aquasco,MD,1,38.5819,-76.7118
Aquebogue,NY,1,40.9401,-72.6379
Aquilla,TX,1,31.8478,-97.2440
Aquinnah,MA,1,,
Arabi,GA,2,31.8325,-83.7330
Arabi/Chalmette,LA,1,,
Aransas Pass,TX,2,27.9093,-97.1497
Arapahoe,NC,2,35.0015,-76.8044
Ararat,VA,2,36.6210,-80.5045
Arbuckle,CA,3,39.0307,-122.0165
Arbutus,MD,2,,
Arcade,GA,1,,
Arcadia,CA,7,34.1344,-118.0324
Arcadia,FL,8,27.1978,-81.8729
Arcadia,IA,1,42.0517,-95.0340
Arcadia,NY,1,,
Arcadia,WI,1,44.2415,-91.5108
Arcanum,OH,1,39.9859,-84.5353
Arcata,CA,13,40.8668,-124.0830
Archdale,NC,1,,
Archer,FL,1,29.5539,-82.5054
Archer City,TX,1,33.5803,-98.6361
Arches National Park,UT,1,,
Arco Dessert,ID,1,,
Arden,AR,1,,
Arden,NC,4,35.4623,-82.5758
Arden (Canada),ON,1,,
Arden Hills,MN,2,,
Ardenvoir,WA,4,47.7283,-120.3685
Ardmore,AL,2,34.9562,-86.8110
Ardmore,OK,10,34.2544,-97.1944
Ardmore,PA,1,40.0025,-75.3002
Ardsley,NY,3,41.0099,-73.8405
Ardsley,PA,1,,
Area 51 (general area; in flight),AZ,1,,
Area 51 (west of),NV,1,,
Argenta,IL,1,39.9308,-88.8317
Argos,KS,1,,
Argyle,FL,1,30.7140,-86.0402
Argyle,TX,1,33.1151,-97.1625
Aripeka,FL,1,28.4302,-82.6620
Arivaca,AZ,2,31.5824,-111.3062
Arizona,AZ,2,,
Arizona (In-flight),AZ,1,,
Arizona (above; in-flight),AZ,1,,
Arizona (southern; on highway),AZ,1,,
Arizona City,AZ,7,32.7456,-111.6793
Arizona or Colorano (inflight sighting),AZ,1,,
Arizona/Californa Border,AZ,1,,
Arizona/California border,CA,1,,
Arkadelphia,AR,1,34.0495,-93.0817
Arkansas (above?; in-flight),AR,1,,
Arkansas (while driving),AR,1,,
Arkansas City,KS,1,37.0784,-96.9857
Arkansas/Oklahoma (border),AR,1,,
Arkdale,WI,1,44.0671,-89.9033
Arkport,NY,1,42.4223,-77.7168
Arlee,MT,1,47.1852,-114.0122
Arley,AL,2,34.0788,-87.1847
Arlington,IA,2,42.7598,-91.6735
Arlington,IN,1,39.6632,-85.5804
Arlington,MA,6,42.4172,-71.1611
Arlington,MO,1,,
Arlington,MS,1,,
Arlington,OH,1,40.9027,-83.6355
Arlington,OR,1,45.5463,-120.3259
Arlington,SD,1,44.3839,-97.1585
Arlington,TN,4,35.2922,-89.7199
Arlington,TX,38,32.6291,-97.1547
Arlington,VA,23,38.8866,-77.0947
Arlington,VT,3,43.1230,-73.1755
Arlington,WA,20,48.1806,-121.9513
Arlington,WI,5,43.3220,-89.3541
Arlington (viewing from),TX,1,,
Arlington Heights,IL,16,42.1129,-87.9812
Arlington/Dallas,TX,1,,
Arlington/Marysville,WA,1,,
Armada,MI,1,42.8492,-82.9234
Armona,CA,2,36.3096,-119.7085
Armonk,NY,1,41.1247,-73.7086
Armstrong (Canada),BC,1,,
Arnold,MD,4,39.0430,-76.4942
Arnold,MO,15,38.4234,-90.4016
Arnold,PA,2,,
Arnprior (Canada),ON,1,,
Arnstein (Canada),ON,1,,
Arp,TX,1,32.2788,-95.0673
Arrow Rock,MO,1,39.0829,-92.9371
Arroyo Grande,CA,7,35.1560,-120.3652
Arroyo Seco,NM,1,36.4942,-105.6188
Artesia,NM,4,32.7229,-104.3281
Arundel,ME,1,,
Arvada,CO,35,39.8028,-105.0869
Asbury,IA,1,,
Asbury,NJ,1,40.6795,-75.0321
Asbury Park,NJ,4,40.2467,-74.0490
Asbury Park,NY,1,,
Ash,NC,3,34.0730,-78.4515
Ash Fork,AZ,1,35.1862,-112.6302
Ash Meadows NWA,NV,1,,
Ash Springs (near),NV,1,,
Ashaway,RI,1,41.4351,-71.7623
Ashburn,GA,4,31.7077,-83.6817
Ashburn,VA,17,39.0438,-77.4879
Ashburnham,MA,2,42.6557,-71.9220
Ashby,MA,2,42.6736,-71.8343
Ashby,MN,1,46.0840,-95.7804
Ashe,NC,1,,
Ashe Fork,NV,1,,
Asheboro,NC,14,35.7370,-79.7704
Asheville,NC,36,35.5901,-82.5582
Asheville (general area),NC,1,,
Asheville (near Airport),NC,1,,
Asheville (near),NC,1,,
Ashfield,PA,1,40.7846,-75.7138
Ashford,CT,1,41.8955,-72.1587
Ashford,WA,2,46.8187,-122.0294
Ashford Hollow,NY,2,,
Ashgrove,MO,4,,
Ashland,KY,7,38.4818,-82.6588
Ashland,MA,1,42.2594,-71.4683
Ashland,ME,1,46.6749,-68.5109
Ashland,MO,3,38.7759,-92.2573
Ashland,NE,3,41.0838,-96.3992
Ashland,NH,4,43.7249,-71.6132
Ashland,OH,4,40.8598,-82.3135
Ashland,OR,11,42.2003,-122.6382
Ashland,VA,3,37.7555,-77.4959
Ashland,WI,1,46.5604,-90.9266
Ashland (just outside of),MO,1,,
Ashland (near),KY,1,,
Ashland (west of; Hanover County),VA,1,,
Ashland City,TN,3,36.2895,-87.0660
Ashleigh Lake,MT,1,,
Ashley,IL,1,38.3040,-89.1810
Ashley,OH,1,40.4151,-82.9584
Ashley,PA,1,,
Ashmont (Canada),AB,1,,
Ashtabula,OH,9,41.8520,-80.7905
Ashton,ID,1,44.0445,-111.3280
Ashton,IL,1,41.8578,-89.1928
Ashton,NV,1,,
Ashton,WV,2,38.6015,-82.1059
Ashville,AL,3,33.8177,-86.2130
Ashville,NY,4,42.0858,-79.4204
Ashville,OH,6,39.7261,-82.9632
Asotin,WA,1,46.1716,-117.1035
Aspen,CO,4,39.1389,-106.7799
Aspen (~2 hrs. W of; driving),CO,1,,
Aspen Cove (Canada),NF,1,,
Aspermont,TX,1,33.1788,-100.2540
Aspers,PA,1,39.9712,-77.2372
Assateague Island,MD,2,,
Assumption,MI,1,,
Aston,PA,3,39.8645,-75.4315
Astoria,NY,5,40.7708,-73.9261
Astoria,OR,13,46.1103,-123.6799
Astoria (Queens),NY,1,,
At sea (Newfoundland) (Canada),NF,1,,
Atascadero,CA,6,35.4576,-120.6803
Atascadero (101 freeway),CA,1,,
Atascocita,TX,2,,
Atascocta,TX,1,,
Atascosa,TX,2,29.2771,-98.7286
Atascosita,TX,1,,
Atchafalaya,LA,1,,
Atchison,KS,2,39.5267,-95.1170
Atco,NJ,3,39.7744,-74.8376
Atglen,PA,1,39.9351,-75.9585
Athabasca (Canada),AB,2,,
Athelstine,WI,1,,
Athena,OR,2,45.8883,-118.5540
Athens,AL,7,34.7658,-87.1082
Athens,GA,24,34.0017,-83.3508
Athens,IL,3,39.9779,-89.6642
Athens,MI,1,42.1095,-85.2220
Athens,NY,1,42.2821,-73.8320
Athens,OH,10,39.3025,-82.0787
Athens,TN,2,35.4202,-84.6513
Athens,TX,4,32.1480,-95.8841
Athens,WV,1,37.4430,-80.9403
Athens (Hwy 72 W),AL,1,,
Athens-East Limestone,AL,1,,
Athol,MA,2,42.5607,-72.1839
Atikokan (Canada),ON,2,,
Atkins,AR,1,35.3019,-92.9238
Atkinson,NH,2,42.8393,-71.1611
Atkinson (near),IL,1,,
Atkinson/Kingston,NH,1,,
Atlanta,GA,80,33.7486,-84.3884
Atlanta,ID,1,43.8,-115.15
Atlanta,IL,1,40.2554,-89.2573
Atlanta,IN,1,40.2049,-86.0189
Atlanta (after takeoff; in flight),GA,1,,
Atlantic,IA,1,41.3962,-94.9999
Atlantic Beach,FL,5,30.3614,-81.4264
Atlantic Beach,NC,5,34.6973,-76.7930
Atlantic City,NJ,16,39.3716,-74.4520
Atlantic City/Cardiff,NJ,1,,
Atlantic Coast (at sea on cruise ship) (Canada),NV,1,,
Atlantic Highlands,NJ,4,40.3990,-74.0411
Atlantic Ocean,FL,3,,
Atlantic Ocean (Canada),NS,1,,
Atlantic and Audubon,IA,1,,
Atmore,AL,2,31.1743,-87.4950
Atoka,OK,1,34.3157,-96.1069
Atoka,TN,5,35.4286,-89.7750
Attalla,AL,3,34.0823,-86.0586
Attalla/Gadsden,AL,1,,
Attawapiskat (Canada),ON,1,,
Attelboro,MA,1,,
Attica,MI,4,43.0631,-83.1677
Attica,NY,1,42.8324,-78.2997
Attleboro,MA,13,41.9383,-71.2942
Atwater,CA,9,37.2931,-120.6460
Atwater,OH,4,41.0314,-81.1731
Atwood,KS,1,39.7851,-100.9647
Auberry,CA,3,37.0796,-119.4177
Aubrey,TX,2,33.2741,-96.9865
Aubrey/Frisco,TX,1,,
Auburn,AL,10,32.5578,-85.4799
Auburn,CA,14,38.9869,-121.1202
Auburn,GA,2,34.0197,-83.8347
Auburn,IL,1,39.5812,-89.7561
Auburn,KY,1,36.8865,-86.7277
Auburn,MA,4,42.1957,-71.8461
Auburn,ME,6,44.0862,-70.2272
Auburn,MI,3,43.6394,-84.0943
Auburn,NE,1,40.3488,-95.9003
Auburn,NH,1,42.9889,-71.3458
Auburn,NY,17,42.9129,-76.5724
Auburn,PA,3,40.5930,-76.1273
Auburn,WA,59,47.3075,-122.2659
Auburn,WI,1,,
Auburn Hills,MI,7,42.6398,-83.2944
Auburn and Westboro,MA,1,,
Auburn/Federal Way,WA,2,,
Auburn/Renton/Bellevue,WA,1,,
Auburn/Skaneateles (between),NY,1,,
Auburndale,WI,1,44.6702,-90.0026
Audubon,IA,2,41.7381,-94.9186
Audubon,PA,2,40.1215,-75.3405
Augusta,GA,29,33.4258,-81.9582
Augusta,KS,2,37.6577,-96.9559
Augusta,ME,14,44.3788,-69.7310
Augusta,MO,1,38.6001,-90.8780
Augusta,MT,1,47.5140,-112.6052
Augusta,NJ,2,41.1402,-74.6973
Augusta,WV,1,39.3152,-78.6009
Aulander,NC,2,36.1952,-77.0920
Aumsville,OR,2,44.8199,-122.8643
Aurburn,KY,1,,
Aurora,CO,52,39.7398,-104.8562
Aurora,IL,19,41.7877,-88.2637
Aurora,IN,3,39.0611,-84.9597
Aurora,KY,1,,
Aurora,MN,1,47.4792,-92.1391
Aurora,NC,1,35.3076,-76.7740
Aurora,OH,5,41.3165,-81.3433
Aurora,OR,3,45.2389,-122.8056
Aurora (Canada),ON,2,,
Aurora Siderd (Hwy. 400) (Canada),ON,1,,
Aurora/Wheaton/Warrenville areas,IL,1,,
Austell,GA,4,33.8335,-84.6248
Austin,IN,1,38.7690,-85.8054
Austin,MN,2,43.7177,-92.9064
Austin,NV,3,39.7395,-117.1984
Austin,TN,1,,
Austin,TX,174,30.2197,-97.7473
Austin (rural),TX,1,,
Austin/Florence,TX,1,,
Austinburg,OH,1,41.7657,-80.8566
Austintown,OH,13,,
Australia,AL,1,,
Auxvasse,MO,3,38.9993,-91.8851
Avalon,CA,3,33.3915,-118.4485
Avalon,NJ,5,39.0899,-74.7307
Avella,PA,1,40.2485,-80.4295
Avenal,CA,2,35.9317,-120.0921
Aventura,FL,6,,
Averill Park,NY,3,42.6328,-73.5248
Avila Beach,CA,2,35.1884,-120.7292
Avila Beach (Diablo Canyon Nucular power Plant),CA,1,,
Avilton (Frostburg),MD,1,,
Avinger,TX,1,32.8668,-94.5694
Avis,PA,1,41.1858,-77.3151
Avnol (near),CA,1,,
Avoca,MI,1,43.0739,-82.6963
Avocado Heights,CA,1,,
Avon,CO,5,39.6216,-106.4950
Avon,CT,4,41.7916,-72.8545
Avon,FL,1,,
Avon,IL,1,40.6350,-90.4296
Avon,IN,3,39.7618,-86.3967
Avon,MA,2,42.1288,-71.0469
Avon,MN,1,45.6182,-94.4362
Avon,NC,10,35.3368,-75.5100
Avon,OH,4,41.4485,-82.0193
Avon Lake,OH,5,41.4968,-82.0176
Avon Park,FL,3,27.5838,-81.3846
Avon/Brodhead,WI,1,,
Avon/Eagle,CO,1,,
Avon/Rushford,NY,1,,
Avondale,AZ,13,33.3587,-112.3283
Avondale/Tolleson,AZ,1,,
Avra Valley,AZ,1,,
Axton,VA,2,36.6796,-79.7081
Ayden,NC,3,35.4394,-77.3806
Ayer/Harvard,MA,1,,
Aylett,VA,1,37.8095,-77.1865
Aylmer (Canada),ON,1,,
Aylmer (Canada),QC,4,,
Aylmer Gatineau (Canada),QC,1,,
Aynor,SC,2,33.9749,-79.1166
Azle,TX,11,32.9080,-97.5806
Aztec,NM,4,36.8718,-107.9512
Aztec (northwest of),NM,1,,
Azusa,CA,11,34.1381,-117.9122
Azusa (East Fork),CA,1,,
Azuza,CA,1,,
Azwell,WA,1,,
Babbitt,MN,2,47.6728,-91.9870
Bablyon,NY,1,,
Babson Park,FL,2,27.8317,-81.5360
Babylon,NY,7,40.6455,-73.4167
Baca Grande,CO,1,,
Backus,MN,2,46.8144,-94.5333
Baconton,GA,1,31.3779,-84.1207
Badger (S. of; N. of Fort Dodge),IA,1,,
Bagdad,AZ,1,34.6670,-113.1885
Bagley,IA,1,41.8489,-94.4353
Bagley,WI,1,42.9262,-91.0670
Bahrain,NV,1,,
Bailey,CO,6,39.4165,-105.6173
Bailey Island,ME,2,43.7413,-69.9927
Bailey's Harbor,WI,2,,
Baileys Harbor,WI,2,45.0855,-87.1413
Baileyton,TN,1,,
Bainbridge,NY,2,42.2958,-75.5130
Bainbridge,OH,2,39.2093,-83.2642
Bainbridge Island,WA,11,47.6476,-122.5355
Bainbrodge,OH,1,,
Baird/Putnam (on I-20),TX,1,,
Baiting H,NY,1,,
Baker,CA,2,35.2812,-116.1803
Baker,FL,1,30.8625,-86.6667
Baker,LA,1,30.5884,-91.1684
Baker,NV,1,39.1421,-114.3394
Baker (20 mi. outside of),CA,1,,
Baker City,OR,4,44.8201,-117.7530
Baker City/La Grande (between),OR,1,,
Bakersfield,CA,63,35.3879,-119.0236
Bakersfield (40 miles north of),CA,1,,
Bakersfield (near I-5),CA,1,,
Bakersville (Roan Mountain),NC,1,,
Bakesrsfield,CA,1,,
Balboa Island,CA,1,,
Bald Eagle Lake,MN,1,,
Bald Knob,AR,1,35.3233,-91.5058
Baldwin,FL,1,,
Baldwin,KS,1,,
Baldwin,ME,1,,
Baldwin,MI,2,43.9307,-85.8609
Baldwin,NY,1,40.6538,-73.6085
Baldwin Borough,PA,1,,
Baldwin County,AL,1,,
Baldwin Park,CA,8,34.0966,-117.9667
Baldwin park,CA,1,,
Baldwin/Jacksonville,MD,1,,
Baldwinsville,NY,9,43.1628,-76.3637
Baldwinville,MA,1,42.6001,-72.0863
Baldy Village,CA,1,,
Balgonie (qu Apple Valley) (Canada),SK,1,,
Balko,OK,2,36.6070,-100.6392
Ball Ground,GA,2,34.3419,-84.3539
Ballard (Seattle),WA,1,,
Ballderson (Canada),ON,1,,
Ballentine,SC,1,34.1245,-81.2375
Balliettsville,PA,1,,
Ballinafad (Canada),ON,1,,
Ballinger,TX,4,31.7251,-99.9516
Ballston Lake,NY,3,42.9352,-73.9072
Ballston Spa,NY,2,43.0044,-73.8680
Ballwin,MO,9,38.6037,-90.5604
Balmville,NY,1,,
Balsam Lake (Canada),ON,1,,
Baltic,CT,1,41.6428,-72.0754
Baltimore,MD,75,39.2954,-76.6239
Baltimore,ME,1,,
Baltimore,OH,2,39.8654,-82.6172
Baltimore (Rossville & Belair Roads),MD,1,,
Baltimore (West Hampden),MD,1,,
Baltimore (city line),MD,1,,
Baltimore City,MD,6,,
Baltimore County,MD,1,,
Bamber Lakes,NJ,2,,
Bamfield (Canada),BC,1,,
Bandera,TX,5,29.7416,-99.1126
Bandon,OR,7,43.1045,-124.3541
Banff (Canada),AB,2,,
Bangor,ME,21,44.8636,-68.8157
Bangor,PA,4,40.8621,-75.1623
Bangor and Bloomingdale (between),MI,1,,
Bangs,TX,2,31.7106,-99.1499
Banks,MS,1,,
Banks,OR,6,45.6682,-123.1354
Banner Elk,NC,1,36.1871,-81.8312
Banner Springs,KS,1,,
Banning,CA,3,33.9178,-116.8371
Bantam,CT,2,41.7227,-73.2576
Bar Harbor,ME,3,44.3572,-68.2868
Baraboo,WI,9,43.4653,-89.7588
Barber,OK,1,,
Barberton,OH,8,41.0192,-81.6203
Barberton/Akron,OH,1,,
Barboursville,WV,8,38.3714,-82.2674
Barbourville,KY,2,36.8424,-83.9393
Bardstown,KY,4,37.7853,-85.4834
Bardwell,KY,1,36.8653,-89.0165
Barefoot Bay,FL,1,,
Bark River,MI,2,45.8032,-87.4251
Barker,NY,1,43.3281,-78.5498
Barkhamsted,CT,1,41.9266,-72.9710
Barkley Lake,KY,1,,
Barksdale AFB,LA,1,,
Barksdale Air Force Base,LA,1,,
Barnard,VT,1,43.7336,-72.5918
Barnegat,NJ,4,39.8022,-74.2991
Barnesville,GA,2,33.0550,-84.1512
Barnesville,MN,1,46.7027,-96.4019
Barnesville,OH,3,39.9952,-81.1615
Barnesville,PA,1,40.8055,-76.0961
Barneveld,WI,1,43.0086,-89.8945
Barnsdall,OK,2,36.5484,-96.1592
Barnstable,MA,3,41.6966,-70.2954
Barnum,MN,2,46.5608,-92.6138
Barnwell,SC,3,33.2124,-81.3468
Baroda,MI,1,41.9497,-86.4802
Barre,MA,1,42.4208,-72.1062
Barre,VT,10,44.1844,-72.4476
Barre Town,VT,1,,
Barrhaven (Canada),ON,1,,
Barrhead (Canada),AB,3,,
Barrie (Canada),ON,20,,
Barrington,IL,6,42.1585,-88.1570
Barrington,NH,1,43.2107,-71.0492
Barrington,NJ,2,39.8640,-75.0537
Barrington Hills,IL,2,,
Barron,WI,1,45.4127,-91.8840
Barry Township,PA,1,,
Barrys Bay (Canada),ON,1,,
Barryville,NY,1,41.4861,-74.9214
Barstow,CA,10,34.8857,-117.0712
Barstow,TX,1,31.4485,-103.2881
Barstow (I-15 Fwy),CA,1,,
Barstow (toward; South on Hwy 40),CA,1,,
Barstow and Needles (between),CA,1,,
Bartlesville,OK,4,36.7377,-96.0814
Bartlet,IL,1,,
Bartlett,IL,13,41.9764,-88.2081
Bartlett,MO,1,,
Bartlett,NH,1,44.1186,-71.2823
Bartlett,TN,5,,
Bartlett/Memphis,TN,1,,
Barto,PA,1,40.4029,-75.5970
Barton,VT,1,44.7450,-72.1472
Barton City,MI,1,44.6940,-83.6455
Barton Hills,MI,1,,
Bartonsville,PA,1,41.0161,-75.2942
Bartow,CA,1,,
Bartow,FL,2,27.8687,-81.8074
Bartow County (Hwy 20; near Wilderness Camp Rd.),GA,1,,
Basalt,CO,1,39.3432,-106.8207
Basehor,KS,1,39.1499,-94.9471
Basin City (2-4 miles west of),WA,1,,
Baskerville,VA,1,36.7102,-78.2781
Basking Ridge,NJ,1,40.6761,-74.5634
Bass Lake,CA,1,37.3215,-119.5518
Bass Lake (near),CA,1,,
Bassett,VA,1,36.7506,-79.9818
Bastrop,LA,4,32.8439,-91.8978
Bastrop,TX,5,30.1346,-97.3200
Basye,VA,1,38.8225,-78.7871
Batavia,IA,2,41.0133,-92.1406
Batavia,IL,7,41.8408,-88.3380
Batavia,NY,8,42.9897,-78.2244
Batavia,OH,9,39.0956,-84.1523
Batchewana Bay (Canada),ON,1,,
Bates,MO,1,,
Batesville,AR,3,35.7926,-91.6656
Batesville,IN,4,39.2899,-85.2133
Batesville,MS,5,34.3022,-89.9466
Batesville (Near Lake Santee),IN,1,,
Bath,ME,3,43.8682,-69.8017
Bath,NH,1,44.1767,-71.9894
Bath,NY,2,42.3624,-77.3612
Bath,OH,2,41.1887,-81.6365
Bath,PA,4,40.7595,-75.4184
Bath (Canada),ON,1,,
Bath County,VA,1,,
Bathurst (Canada),NB,2,,
Baton,NC,1,,
Baton Rouge,LA,36,30.4492,-91.1876
Battle Creek,MI,12,42.3029,-85.1054
Battle Ground,WA,11,45.8010,-122.4842
Battle Lake,MN,1,46.2843,-95.7057
Battle Mountain,NV,2,40.6281,-116.9413
Battle Mountain (54 miles from),NV,1,,
Battle Mountain (south of; on Hwy. 95),NV,1,,
Battleground,IN,1,,
Battlement Mesa,CO,1,39.4545,-108.0524
Baudette,MN,1,48.6835,-94.3529
Bauxite,AR,3,34.5111,-92.4798
Baxter Springs,KS,1,37.0480,-94.7995
Bay Area,CA,1,,
Bay Center,WA,1,46.6202,-123.9544
Bay City,MI,14,43.6094,-83.9452
Bay City,TX,4,28.9825,-95.9693
Bay D'Espoir (Canada),NF,1,,
Bay Harbor,MI,1,,
Bay Head,NJ,1,,
Bay Lake,FL,1,,
Bay Minette,AL,2,30.8861,-87.7581
Bay Point,CA,2,,
Bay Point Park (Radio Marti),FL,1,,
Bay Point/ Pittsburg,CA,1,,
Bay Saint Louis,MS,4,30.3341,-89.4970
Bay Shore,NY,5,40.6988,-73.2076
Bay Shore (Long Island),NY,1,,
Bay St. Louis,MS,2,,
Bay Village,OH,4,41.4910,-81.9215
Bay Village/Sheffield Lake,OH,1,,
Bayfield,CO,1,37.3773,-107.4707
Bayfield,WI,5,46.9258,-90.7222
Bayfield (Canada),ON,2,,
Bayfield Inlet (Canada),ON,1,,
Baylis,IL,1,39.7822,-90.8582
Bayonne,NJ,11,40.6708,-74.1064
Bayshore,NY,2,,
Bayside,NY,3,40.7918,-73.7765
Baytown,TX,13,29.7707,-94.8754
Bayview,TX,1,,
Bayview,WA,1,,
Bayville,NJ,7,39.9044,-74.2114
Bayville,NY,3,40.9077,-73.5576
Beach Haven,NJ,2,39.6379,-74.1989
Beach Haven Terrace,NJ,1,,
Beach Haven West,NJ,1,,
Beach Park,IL,2,,
Beachwood,NJ,4,39.9284,-74.2016
Beachwood,OH,2,41.4795,-81.5119
Beacon,NY,4,41.4916,-73.9492
Beacon Falls,CT,4,41.4365,-73.0588
Beacon Rock State Park,WA,2,,
Beacon Rock State Park (Skamania),WA,1,,
Beaconsfield (Canada),QC,1,,
Beadle County (rural area),SD,1,,
Beal AFB,CA,1,,
Beale AFB,CA,2,,
Bealeton,VA,1,38.5492,-77.7558
Beamsville (Canada),ON,1,,
Bean Station,TN,2,36.3283,-83.3448
Bear,DE,17,39.5983,-75.7061
Bear Creek,AL,1,34.2133,-87.7419
Bear Lake,UT,1,,
Bear River/Evanston,WY,1,,
Beardstown,IL,3,40.0008,-90.4258
Bearskin Lake (Canada),ON,1,,
Beatrice,NE,3,40.2553,-96.7279
Beatty,NV,2,36.8999,-116.7742
Beattyville,KY,2,37.6033,-83.7083
Beaufort,NC,1,34.8911,-76.5351
Beaufort,SC,8,32.4316,-80.6700
Beaumont,AB,1,,
Beaumont,CA,5,33.9171,-117.0001
Beaumont,TX,8,30.0945,-94.0934
Beaumont (Canada),AB,1,,
Beaumont/Cherry Valley,CA,1,,
Beauval (Canada),SK,1,,
Beaver,AR,1,36.4751,-93.7678
Beaver,OH,3,39.0457,-82.8620
Beaver,PA,3,40.6999,-80.3601
Beaver,UT,1,38.3606,-112.5647
Beaver,WV,1,37.7969,-81.0542
Beaver (in outskirts of),UT,1,,
Beaver Creek,OR,1,,
Beaver Creek/Alaska Highway (Canada),YT,1,,
Beaver Crossing (approx. 15 miles from I-80 loop; near ),NE,1,,
Beaver Dam,AZ,6,,
Beaver Dam,WI,3,43.4665,-88.8558
Beaver Dam (Canada),NB,1,,
Beaver Dam (rural),WI,1,,
Beaver Dam/Oromocto (Canada),NB,1,,
Beaver Falls,PA,6,40.7696,-80.3557
Beaver Lake,AR,1,,
Beaver Lake,NE,1,,
Beaver Lake (Canada),AB,1,,
Beaverbank (Canada),NS,1,,
Beavercreek,OH,9,,
Beaverdam,OH,1,40.8328,-83.9762
Beaverdam,VA,1,37.9366,-77.6184
Beaverdam (Canada),NB,3,,
Beaverton,OR,51,45.4965,-122.7999
Beaverton/Tigard,OR,1,,
Beaverville,IL,1,40.9728,-87.6004
Becket,MA,1,42.3241,-73.1309
Beckeymeyer,IL,1,,
Beckley,WV,4,37.8226,-81.2318
Beckwourth,CA,1,39.8205,-120.3775
Bedford,IN,5,38.8710,-86.4661
Bedford,MA,2,42.4999,-71.2753
Bedford,NH,4,42.9392,-71.5347
Bedford,NY,3,41.1876,-73.6348
Bedford,TX,3,32.8525,-97.1341
Bedford,VA,2,37.3399,-79.5274
Bedford Park,IL,1,41.7516,-87.7305
Bedminster,NJ,2,40.6560,-74.6855
Bee Cave,TX,1,,
Beebe,AR,2,35.1146,-91.9067
Beech Creek,PA,1,41.1555,-77.7054
Beech Grove,IN,2,39.7141,-86.0888
Beech Island/Jackson,SC,1,,
Beechbottom (OH Co. Airport Rd.),WV,1,,
Beecher,IL,7,41.3496,-87.6173
Beekmantown,NY,1,,
Beeton (Canada),ON,4,,
Beeville-Kennedy,TX,1,,
Bel,NY,1,,
Bel Air,MD,16,39.5382,-76.3526
Bel Aire,KS,1,,
Belair,MD,2,,
Belcamp,MD,3,39.4753,-76.2373
Belchertown,MA,3,42.2748,-72.4019
Belcourt,ND,2,48.8055,-99.7887
Belen,NM,6,34.6109,-106.6981
Belfair,WA,2,47.4393,-122.9262
Belfast,ME,2,44.4693,-69.0567
Belford,NJ,1,40.4206,-74.0842
Belfry,KY,2,37.6715,-82.3090
Belgrade,ME,1,44.4830,-69.8382
Belgrade,MT,7,45.9613,-111.0603
Belgrade (Serbia),SC,1,,
Belgreen,AL,1,,
Belington,WV,1,39.0401,-79.9560
Bell,CA,1,33.9656,-118.1519
Bell Buckle,TN,2,35.6367,-86.3977
Bellaire,MI,4,44.9639,-85.2027
Bellaire,OH,1,40.0009,-80.8062
Bellbrook,OH,1,39.6413,-84.0579
Bellchester,MN,1,,
Belle,WV,1,38.2068,-81.4922
Belle Glade,FL,2,26.6664,-80.6634
Belle Mead,NJ,2,40.4416,-74.6554
Belle Plaine,IA,1,41.8807,-92.2539
Belle River (Canada),ON,2,,
Belle Vernon,PA,1,40.1584,-79.8239
Belle Vernon (Westward),PA,1,,
Bellefontaine,OH,3,40.3708,-83.7385
Bellefonte,DE,1,,
Belleview,FL,2,29.0514,-82.0405
Belleville,IL,9,38.4649,-89.9709
Belleville,IN,1,,
Belleville,MI,2,42.1753,-83.4753
Belleville,NJ,2,40.7921,-74.1624
Belleville,NY,1,43.7866,-76.1334
Belleville,WI,2,42.8613,-89.5931
Belleville (Canada),ON,4,,
Belleville (Ontario) (Canada),ON,1,,
Bellevue,ID,2,43.3809,-114.2987
Bellevue,KY,1,39.1028,-84.4762
Bellevue,NE,6,41.1230,-95.8906
Bellevue,NV,1,,
Bellevue,OH,2,41.2484,-82.8415
Bellevue,PA,1,,
Bellevue,TN,3,,
Bellevue,WA,48,47.6177,-122.2108
Bellevue,WI,1,,
Bellevue/Issaquah,WA,1,,
Bellevue/Kirkland,WA,1,,
Bellflower,CA,4,33.8880,-118.1290
Bellingham,MA,8,42.0765,-71.4722
Bellingham,WA,78,48.7477,-122.5222
Bellingham (Sudden Valley),WA,1,,
Bellingham-Lummi,WA,1,,
Bellis (Canada),AB,1,,
Bellmont,AZ,1,,
Bellmore,NY,2,40.6737,-73.5379
Bellport,NY,3,40.7762,-72.9425
Bellville (Canada),ON,1,,
Bellvue,CO,1,40.6229,-105.5484
Belmar,NJ,3,40.1783,-74.0222
Belmar and Wall Twp.,NJ,1,,
Belmont,MA,7,42.3955,-71.1821
Belmont,ME,1,,
Belmont,MI,1,43.0798,-85.5604
Belmont,MS,2,34.5474,-88.2305
Belmont,NC,6,35.2184,-81.0430
Belmont,NH,3,43.4632,-71.4708
Belmont,NY,1,42.2410,-77.9761
Belo,WV,1,,
Beloit,KS,1,39.3931,-98.1532
Beloit,WI,5,42.5585,-89.0986
Beloit,WY,1,,
Beloit Township,WI,1,,
Beloit/Milwaukee (between),WI,1,,
Belpit,KS,1,,
Belpre,OH,2,39.3278,-81.6266
Belt,MT,1,47.3260,-110.8932
Belton,MO,8,38.7851,-94.5459
Belton,SC,4,34.4894,-82.4613
Belton,TX,4,31.0449,-97.5059
Beltsville,MD,2,39.0347,-76.9076
Beltzhoover,PA,1,,
Beltzville,PA,1,,
Belvidere,IL,3,42.2474,-88.8365
Belvidere,NJ,1,40.8279,-75.0320
Belvidere,VT,1,,
Bemidji,MN,16,47.5132,-94.7456
Bemidji (north of),MN,1,,
Bemus Point,NY,1,42.1687,-79.3750
Ben Avon,PA,1,,
Ben Hur,VA,1,36.7340,-83.0653
Ben Lomond,CA,1,37.1018,-122.0993
Ben Wheeler,TX,4,32.4248,-95.6514
Benbrook,TX,4,,
Bend,OR,45,44.0868,-121.2574
Bend,TX,1,31.0632,-98.5105
Bend/Burns (between),OR,1,,
Bend/Burns (between; on Hwy. 20),OR,1,,
Benedicta,ME,1,45.8056,-68.3944
Benicia,CA,10,38.0951,-122.1261
Bennett,CO,1,39.6989,-104.4162
Bennington,IN,1,38.8653,-85.0713
Bennington,KS,2,39.0161,-97.6031
Bennington,NE,2,41.3788,-96.2055
Bennington,VT,5,42.9097,-73.1406
Bensalem,PA,12,40.1012,-74.9417
Bensenville,IL,2,41.9552,-87.9401
Benson,AZ,7,32.1992,-110.3304
Benson,NC,4,35.4176,-78.4983
Benson,VT,3,43.7066,-73.3118
Benson (north of),AZ,1,,
Bentleyville (3-5 miles east of; on I-70),PA,1,,
Benton,AR,4,34.5345,-92.6219
Benton,IL,1,38.0169,-88.9266
Benton,KY,3,36.8672,-88.3167
Benton,LA,3,32.7104,-93.6427
Benton,ME,1,,
Benton,MO,1,37.0894,-89.5263
Benton,MS,1,32.8338,-90.2234
Benton,TN,2,35.1685,-84.6296
Benton (Aurora),KY,1,,
Benton (north of),OH,1,,
Benton City,WA,4,46.3058,-119.5070
Benton County,MO,1,,
Benton Hot Springs,CA,1,,
Bentonville,AR,8,36.3431,-94.2472
Bentonville,VA,1,38.8185,-78.2785
Benwood,WV,1,40.0062,-80.7112
Benzie County,MI,1,,
Beowawe,NV,2,,
Berberton,OH,1,,
Berea,KY,2,37.5596,-84.2442
Berea,OH,4,41.3671,-81.8671
Beresford (Canada),NB,1,,
Bergen,NY,5,43.0814,-78.0179
Bergenfield,NJ,3,40.9231,-73.9986
Berkeley,CA,23,37.8718,-122.2718
Berkeley,IL,1,41.8866,-87.9081
Berkeley (Moraga),CA,1,,
Berkeley (above),CA,2,,
Berkeley Heights,NJ,1,40.6756,-74.4202
Berkeley Springs,WV,1,39.5436,-78.2091
Berkley,MA,1,41.8259,-71.0704
Berkley,MI,5,42.4994,-83.1811
Berkley,NJ,1,,
Berkley Heights,NJ,3,,
Berkley Twsp.,NJ,1,,
Berks County,PA,1,,
Berlin,CT,8,41.6034,-72.7761
Berlin,GA,1,31.0678,-83.6239
Berlin,MD,5,38.3141,-75.2355
Berlin,NH,6,44.4550,-71.2607
Berlin,NJ,5,39.7567,-74.9256
Berlin,PA,1,39.9245,-78.9080
Berlin,VT,1,,
Berlin,WI,6,44.0040,-88.9867
Berlin (Assateague Island),MD,1,,
Berlin Heights,OH,2,41.3244,-82.4520
Berlin Township,MI,1,,
Berlin Township (just east of S.Rockwood),MI,1,,
Berlin Township (just east of South Rockwood),MI,1,,
Bermuda Dunes,CA,2,,
Bermuda Run,NC,1,,
Bernalillo,NM,4,35.3833,-106.6358
Bernallilo (entering to Alburquerque),NM,1,,
Bernard,ME,1,44.2501,-68.3540
Bernardston,MA,2,42.6901,-72.5851
Bernardsville,NJ,4,40.7262,-74.5921
Berne,IN,1,40.6729,-84.9359
Berne,NY,1,42.6073,-74.1783
Bernie,MO,2,36.6910,-90.0095
Bernville,PA,6,40.4624,-76.1218
Berrien Springs,MI,1,41.9430,-86.3701
Berry Creek,CA,3,39.7039,-121.3453
Berryville,AR,4,36.2888,-93.5582
Berryville,VA,2,39.1753,-77.9753
Berthierville (Canada),QC,1,,
Berthoud,CO,3,40.2933,-105.1097
Berthoud Pass,CO,1,,
Berthoud area,CO,1,,
Bertram,TX,4,30.7314,-98.0448
Berwick,LA,1,29.6352,-91.1731
Berwick,ME,3,43.3048,-70.8421
Berwick,PA,2,41.1003,-76.2618
Berwick(town) (Canada),NS,1,,
Berwyn,IL,6,41.8287,-87.7898
Berwyn,PA,3,40.0319,-75.4555
Bessemer,AL,1,33.4019,-86.9432
Bessemer,PA,1,40.9580,-80.4935
Bessemer (near),AL,1,,
Bessemer City,NC,4,35.3273,-81.2883
Bessie,OK,1,35.3847,-98.9981
Bethalto,IL,1,38.9337,-90.0574
Bethany,OK,3,35.5186,-97.6451
Bethany (Route 1),DE,1,,
Bethany Beach,DE,10,38.5561,-75.0692
Bethany Beach,MD,1,,
Bethel,AK,7,60.9125,-161.9762
Bethel,CT,3,41.3818,-73.3930
Bethel,ME,2,44.4075,-70.8360
Bethel,NC,1,35.7566,-77.3859
Bethel,NY,1,41.6611,-74.9037
Bethel,OH,7,38.9315,-84.0280
Bethel,VT,1,43.7941,-72.6601
Bethel Park,PA,6,40.3222,-80.0355
Bethel Park/Castle Shannon,PA,1,,
Bethera,SC,1,33.2,-79.78
Bethesda,MD,6,38.9806,-77.1008
Bethesda,OH,2,39.9987,-81.0761
Bethleham,GA,1,,
Bethlehem,CT,1,41.6374,-73.2095
Bethlehem,GA,2,33.9280,-83.7662
Bethlehem,NH,2,44.2528,-71.6036
Bethlehem,PA,18,40.5844,-75.3698
Bethlehem Township,PA,1,,
Bethlehen,NH,1,,
Bethpage,NY,7,40.7407,-73.4868
Bethpage (Long Island),NY,1,,
Bettendorf,IA,12,41.5651,-90.4559
Between,GA,1,,
Between Wabash and Marion onq5,IN,1,,
Beulaville,NC,1,34.8886,-77.7447
Beverly,MA,5,42.5678,-70.8581
Beverly,WA,1,46.8655,-119.9255
Beverly Beach,FL,1,,
Beverly Hills,CA,5,34.0738,-118.3994
Beverly Hills,FL,4,28.9125,-82.3301
Beverly Hills,MI,3,,
Beverly Hills/ Los Angeles,CA,1,,
Beverly Shores,IN,1,41.6873,-86.9712
Bevington,IA,1,41.4102,-93.8082
Bexley,OH,3,,
Bhopal,TX,1,,
Bicknell,IN,1,38.7943,-87.3280
Biddeford,ME,4,43.4967,-70.4886
Biddeford Pool,MA,1,,
Big Bay,MI,2,46.6986,-87.8665
Big Bear,CA,3,,
Big Bear City,CA,2,34.2619,-116.9002
Big Bear Lake,CA,1,34.2480,-116.9211
Big Bend,WI,1,42.8858,-88.2186
Big Bend National Park,TX,2,29.3635,-103.2121
Big Lake,AK,3,61.4649,-150.0977
Big Lake,MN,3,45.4060,-93.7416
Big Lake Township,MN,1,,
Big Oak Valley,CA,1,,
Big Pine,CA,2,37.2702,-117.9451
Big Pine Key,FL,3,24.6876,-81.3150
Big Pines,CA,1,,
Big Rapids,MI,2,43.7051,-85.5128
Big Rock,TN,1,36.5836,-87.7317
Big Rock,VA,1,37.3208,-82.2392
Big Sandy,MT,1,48.0046,-110.1115
Big Sandy,WY,1,,
Big Sky,MT,4,45.2812,-111.3226
Big Spring,TX,3,32.2910,-101.4382
Big Stone Gap,VA,2,36.8424,-82.7554
Big Sur,CA,6,36.0648,-121.5493
Big Timber,MT,1,45.9252,-109.9388
Big Wells,TX,1,28.5258,-99.5923
Bigelow,AR,2,34.9972,-92.6438
Bigfork,MT,2,47.8766,-113.8724
Bighorn (Municipal district) (Canada),AB,1,,
Biglake,MN,1,,
Biglerville,PA,2,39.9389,-77.3082
Bill,WY,1,,
Billerica,MA,5,42.5491,-71.2559
Billings,MO,1,37.0575,-93.5057
Billings,MT,47,45.6603,-108.3843
Billings-Lockwood,MT,1,,
Billings/Laurel,MT,1,,
Biloxi,MS,8,30.4081,-88.8956
Binghamton,NY,26,42.1648,-75.8786
Birch Bay,WA,2,,
Birch River,WV,1,38.4789,-80.7659
Birch Run,MI,1,43.2787,-83.8073
Birch Tree,MO,2,36.9264,-91.5040
Bird in Hand,PA,1,,
Birdlake,MI,1,,
Birdsboro,PA,2,40.2537,-75.8234
Birmingham,AL,47,33.5208,-86.8027
Birmingham,MI,1,42.5458,-83.2155
Birmingham (NE of),AL,1,,
Birmingham (outside Hueytown),AL,1,,
Biscoe,NC,1,35.3380,-79.7551
Bishop,CA,7,37.5061,-118.3774
Bishop,WV,1,,
Bishop (closest town),CA,1,,
Bishops Falls (Canada),NF,1,,
Bishopville,SC,2,34.2087,-80.2771
Bismarck,MO,2,37.7477,-90.6068
Bismarck,ND,12,46.8225,-100.7190
Bisti,NM,1,,
Bistib,MA,1,,
Bivins,TX,1,32.9598,-94.1531
Bixby,OK,2,35.9313,-95.8083
Black Canyon,AZ,1,,
Black Canyon City,AZ,5,34.1051,-111.8568
Black Canyon City (near),AZ,1,,
Black Creek,NY,1,42.2892,-78.2228
Black Creek (Canada),BC,1,,
Black Diamond,WA,3,47.3142,-121.9950
Black Hawk,SD,1,44.1760,-103.3740
Black Hills,SD,1,,
Black Mountain,NC,4,35.6050,-82.2767
Black River,NY,3,43.9868,-75.7886
Black River Falls,WI,7,44.2468,-90.7722
Black Rock,AR,1,36.1311,-91.1848
Black Rock,CT,1,,
Black Rock Campgroud Joshua tree,CA,1,,
Blackduck/Bemidji (between),MN,1,,
Blackfoot,ID,4,43.3753,-112.5716
Blackjack (North St. Louis Co.),MO,1,,
Blacklick,OH,5,40.0151,-82.8053
Blacksburg,VA,5,37.2668,-80.4368
Blackshear,GA,6,31.3241,-82.2464
Blackstock (Canada),ON,1,,
Blackstone,MA,2,42.0395,-71.5307
Blackstone,VA,2,37.0848,-77.9543
Blackville,SC,1,33.3621,-81.2893
Blackwood,NJ,8,39.7854,-75.0500
Bladen,NE,1,40.2707,-98.6112
Blain Lake (Canada),SK,1,,
Blaine,KY,1,38.0290,-82.8654
Blaine,MN,10,,
Blaine,TN,1,36.1697,-83.6609
Blaine,WA,6,48.9300,-122.6866
Blairs,VA,2,36.7257,-79.3384
Blairstown,NJ,1,40.9680,-74.9557
Blairsville,GA,2,34.8549,-83.9640
Blairsville,PA,1,40.4627,-79.2080
Blanchard,LA,1,32.5719,-93.8870
Blanchard,MI,4,43.5165,-85.0700
Blanchard,PA,1,41.0459,-77.5978
Blanchard,WA,1,,
Blanchardville,WI,2,42.7932,-89.8774
Blanchester,OH,5,39.2799,-83.9549
Blandon,PA,2,40.4509,-75.8794
Blanford,IN,1,39.6664,-87.5196
Block Island,RI,2,41.1892,-71.5786
Blocksburg,CA,2,40.2929,-123.6432
Bloomer,WI,3,45.1028,-91.4814
Bloomfield,IA,1,40.7653,-92.4084
Bloomfield,MI,1,,
Bloomfield,MO,1,36.9296,-89.9607
Bloomfield,NJ,5,40.8085,-74.1880
Bloomfield,NM,2,36.6199,-107.7584
Bloomfield,NY,1,42.8654,-77.4721
Bloomfield (Canada),ON,2,,
Bloomfield (Canada),PE,1,,
Bloomfield Hills,MI,4,42.5438,-83.2793
Bloomfield hills,MI,1,,
Bloomfield--Hillside,NJ,1,,
Bloomfield-Friendship (Pittsburgh),PA,1,,
Bloomignton,MN,1,,
Bloomingburg,NY,1,41.5858,-74.4292
Bloomingburg,OH,1,39.6401,-83.4106
Bloomingdale,GA,1,32.1278,-81.3409
Bloomingdale,IL,3,41.9498,-88.0960
Bloomingdale,NJ,1,41.0334,-74.3316
Bloomingdale,OH,2,40.3786,-80.7947
Bloomington,CA,4,34.0630,-117.3939
Bloomington,IL,24,40.4734,-88.9918
Bloomington,IN,15,39.0794,-86.4446
Bloomington,MN,11,,
Bloomington (Minneapolis),MN,1,,
Bloomington (near I-494 and Hwy. 77),MN,1,,
Bloomington (outside; north of),IL,1,,
Bloomington/Lake Monroe,IN,1,,
Bloomington/Minneapolis,MN,1,,
Bloomsbug,PA,1,,
Bloomsburg,PA,5,41.0457,-76.4290
Bloomsburg/White haven,PA,1,,
Bloomsbury,NJ,1,40.6436,-75.0974
Blossom,TX,1,33.7250,-95.3926
Blossvale,NY,4,43.2341,-75.6441
Blountsville,AL,1,34.1179,-86.5621
Blountville,TN,3,36.5267,-82.3820
Blowing Rock,NC,2,36.1223,-81.7497
Blue,OK,1,,
Blue Ash,OH,2,,
Blue Bell,PA,3,40.1575,-75.2796
Blue Diamond,NV,2,36.0378,-115.4059
Blue Eye,MO,1,36.5606,-93.4488
Blue Hill,ME,2,44.4085,-68.5871
Blue Hills,MA,1,,
Blue Island,IL,7,41.6512,-87.6823
Blue Mountains (in NE Oregon),OR,1,,
Blue Point,NY,2,40.7490,-73.0326
Blue Ridge,GA,6,34.7933,-84.3274
Blue Ridge (close to),GA,1,,
"Blue Ridge Pkwy, NC",NC,1,,
Blue Ridge Summit,PA,1,39.7400,-77.4658
Blue Springs,MO,15,39.0167,-94.2817
Blue Springs,MS,1,34.4301,-88.8767
Blue Springs (east of),MO,1,,
Blue Star Memorial Highway,NJ,1,,
Blue springs,MO,1,,
Bluebell,PA,1,,
Bluefield,WV,2,37.3009,-81.2118
Bluefield/Bland Virginia,WV,1,,
Blueridge,GA,1,,
Bluetown,TX,1,,
Bluff City,AR,1,33.7115,-93.2120
Bluff City,TN,3,36.4668,-82.2017
Bluffdale,UT,2,,
Bluffton,IN,4,40.7096,-85.1744
Bluffton,OH,2,40.8729,-83.8806
Bluffton,SC,7,32.2279,-80.8876
Bluffton (on Collaton River),SC,1,,
Blum,TX,1,32.1021,-97.3725
Blumont,VA,1,,
Blythe,CA,6,33.5843,-114.6263
Blythe,GA,1,33.2806,-82.1929
Blythe/Desert Center (between),CA,1,,
Blythewood,SC,1,34.1972,-80.9956
Blyville,AR,1,,
Boalsburg,PA,2,40.7730,-77.7602
Board Camp,AR,1,34.5378,-94.0956
Boardman,OH,9,,
Boardman/Canfield,OH,1,,
Boaz,AL,4,34.1429,-86.1531
Bobcaygeon (Canada),ON,4,,
Boca Raton,FL,46,26.3583,-80.0834
Bodega Bay,CA,1,38.3489,-123.0312
Bodie (near),CA,1,,
Boerne,TX,6,29.8979,-98.7190
Bogalusa,LA,2,30.7535,-89.9088
Bogart,GA,3,33.9217,-83.5207
Bogata,TX,1,33.4728,-95.0702
Bogie Sound (Emerald Isle Bridge),NC,1,,
Bohemia,NY,5,40.7702,-73.1250
Boilgee,AL,1,,
Boiling Springs,NC,1,35.2556,-81.6495
Boiling Springs,PA,1,40.1218,-77.1157
Boiling Springs,SC,4,35.0420,-81.9759
Boiling Springs Lake,NC,1,,
Bois D'Arc,MO,1,,
Boise,ID,154,43.6139,-116.2025
Boise (downtown area),ID,1,,
Boise (near),ID,1,,
Boise/Idaho Falls (between; Hwy 22),ID,1,,
Bokchito,OK,1,33.9732,-96.1862
Boldo,AL,1,,
Bolingbrook,IL,11,41.6981,-88.0775
Bolivar,MO,7,37.6424,-93.3945
Bolivar,OH,1,40.6310,-81.4579
Bolivar,PA,1,40.3531,-79.1810
"Bolivar, Hermitage, and Urbana",MO,1,,
Bolivia,NC,2,34.0152,-78.1692
Bolton,CT,2,41.7664,-72.4389
Bolton,NY,2,,
Bolton (Canada),ON,2,,
Bolton Landing,NY,1,43.6060,-73.6329
Bomoseen,VT,1,43.6356,-73.2040
Bon Air,VA,1,,
Bonaie,GA,1,,
Bonaire,GA,2,32.5133,-83.5752
Bonaparte,IA,1,40.7405,-91.7763
Bondurant,IA,2,41.7309,-93.4450
Bondville,VT,1,43.1626,-72.9322
Bonham,TX,2,33.5611,-96.2016
Bonita,CA,3,32.6786,-117.0137
Bonita Springs,FL,10,26.3319,-81.7522
Bonner,MT,1,46.9595,-113.5747
Bonnerdale,AR,1,34.3740,-93.3296
Bonnerdale/Crossroads,AR,1,,
Bonners Ferry,ID,1,48.7506,-116.6335
Bonneville Salt Flats,UT,1,,
Bonneville Salt Flats (Salt Lake City),UT,1,,
Bonneville Salt Flats (unincorp.),UT,1,,
Bonney Lake,WA,6,47.1724,-122.1742
Bonny Doon,CA,1,,
Bonnyville (Canada),AB,1,,
Bonsall,CA,3,33.2869,-117.2053
Boomer,NC,1,36.0581,-81.3161
Boomer,WV,1,38.1519,-81.2652
Boon,MI,1,44.2969,-85.6139
Boone,IA,3,42.0872,-93.8531
Boone,NC,8,36.2250,-81.6569
Boone Grove,IN,1,41.3544,-87.1296
Boones Creek,TN,1,,
Booneville,AR,1,35.1390,-93.9325
Booneville,KY,2,37.4356,-83.6336
Boonsboro,MD,4,39.5189,-77.6961
Boonton,NJ,1,40.9355,-74.4217
Boonton Town,NJ,1,,
Boonton Twp,NJ,1,,
Boonville,AR,1,,
Boonville,CA,2,39.0151,-123.3842
Boonville,IN,3,38.0619,-87.2531
Boonville,MO,1,38.9002,-92.7197
Boonville,NC,1,36.2092,-80.6938
Boonville,NY,1,43.4774,-75.3245
Boothwyn,PA,3,,
Borden,IN,1,38.4487,-85.9007
Borden Carleton (Canada),PE,1,,
Borden Springs,AL,1,,
Bordentown,NJ,2,40.0929,-74.7414
Borderland,WV,1,37.7168,-82.3100
Borger,TX,1,35.7700,-101.2916
Boring,OR,3,45.4166,-122.3379
"Boring, Sandy area",OR,1,,
Borrego,CA,1,,
Borrego Springs,CA,5,33.1506,-116.3496
Borrego Springs (near),CA,1,,
Boscawen,NH,3,,
Boscobel,WI,1,43.1565,-90.6747
Bossier City,LA,7,32.5695,-93.6941
Boston,GA,1,30.7916,-83.8068
Boston,MA,52,42.3573,-71.0645
Boston,NY,3,42.6203,-78.7215
Boston (northeast of),MA,1,,
Boston (northwest of),MA,1,,
Boston Area,MA,1,,
Boston area,MA,1,,
Bothell,WA,20,47.7503,-122.2047
Bothell (above),WA,1,,
Bothell/Kirkland,WA,1,,
Botkins,OH,1,40.4537,-84.1836
Boucherville (Canada),QC,1,,
Bouckville,NY,1,42.8993,-75.5768
Boulder,CO,58,40.0480,-105.2068
Boulder,UT,1,37.8470,-111.2795
Boulder (Gun Barrel Subdivision),CO,1,,
Boulder (foothills of),CO,1,,
Boulder (near),CO,1,,
Boulder City,ID,1,,
Boulder City,NV,6,35.9282,-114.8327
Boulder Creek,CA,5,37.1634,-122.1562
Boulder/Lafayette,CO,1,,
Boulder/Niwot,CO,1,,
Boulevard,CA,1,32.7336,-116.3019
Bound Brook,NJ,1,40.5714,-74.5374
Boundary Waters,MN,1,,
Bountiful,UT,11,40.8762,-111.8235
Bourbonnais,IL,5,41.1908,-87.8559
Bourne,MA,5,,
Bouse,AZ,2,33.9639,-113.9171
Boutte,LA,1,29.8888,-90.3952
Bovey,MN,2,47.4273,-93.3796
Bow,NH,2,43.1291,-71.5424
Bow,WA,3,48.5659,-122.4457
Bow Island (Canada),AB,1,,
Bowden,WV,1,38.9490,-79.6570
Bowdoinham,ME,3,44.0367,-69.8592
Bowen Island (Canada),BC,2,,
Bowie,MD,11,38.9926,-76.7389
Bowie,TX,1,33.5881,-97.7806
Bowleys Quarters,MD,1,,
Bowling Green,FL,1,27.5531,-81.9880
Bowling Green,IN,1,39.3637,-86.9690
Bowling Green,KY,23,37.0182,-86.4630
Bowling Green,OH,9,41.3990,-83.6861
Bowling green,OH,1,,
Bowmansville,PA,1,40.1968,-76.0176
Bowmanville (Canada),ON,4,,
Bowser (Canada),BC,1,,
Box Elder,SD,2,44.1401,-102.9902
Boxborough,MA,1,42.4914,-71.5177
Boxford,MA,1,42.6793,-71.0294
Boyce,VA,1,39.0654,-78.0325
Boyd,TX,1,33.0513,-97.6090
Boydton,VA,1,36.6405,-78.2700
Boyertown,PA,2,40.3500,-75.6824
Boyes Hot Springs,CA,1,38.3176,-122.4850
Boyle Heights,CA,1,,
Boylston,MA,2,42.3540,-71.7174
Boylston,NY,1,,
Boyne City,MI,1,45.1972,-85.0107
Boyne City (rural),MI,1,,
Boyne Falls,MI,1,45.2053,-84.8555
Boynton Beach,FL,33,26.5253,-80.0668
Boynton Beach/Wellington,FL,1,,
Bozeman,MT,40,45.6629,-110.9243
Bozeman (Gallatin Range),MT,1,,
Bozeman/ Belgrade,MT,1,,
Bozeman/Belgrade (between),MT,2,,
Bozeman/Clyde park,MT,1,,
Bozeman/Gallatin Gateway (Hyalite Reservoir),MT,1,,
Bozra,CT,1,,
Bozrah,CT,2,41.5472,-72.1775
Braddock Hills (Pittsburgh),PA,1,,
Bradenton,FL,41,27.4067,-82.4660
Bradenton (northeast area of),FL,1,,
Bradenton Beach,FL,2,27.4974,-82.7078
Bradenton/Sarasota,FL,1,,
Bradenville,PA,1,40.3287,-79.3377
Bradford,MA,1,,
Bradford,MN,1,,
Bradford,PA,4,41.9204,-78.7253
Bradford,VT,1,44.0090,-72.1682
Bradford (Canada),ON,4,,
Bradford (UK/England),BC,1,,
Bradley,IL,2,41.1492,-87.8641
Bradley Beach,NJ,3,40.2019,-74.0121
Bradshaw,NE,1,40.9596,-97.7692
Brady,NE,2,41.0327,-100.3573
Brady,TX,1,31.0940,-99.4391
Brady,WA,4,,
Bradyville,TN,1,35.7047,-86.1098
Braham,MN,1,45.7447,-93.2269
Braidwood,IL,1,41.2455,-88.2168
Brainard (6 mi. E of; on Hwy. 92),NE,1,,
Brainerd,MN,10,46.3217,-94.1168
Braintree,MA,3,42.2034,-71.0048
Braintree,VT,4,,
Brampton (Canada),ON,31,,
Branchburg,NJ,1,,
Branchdale,PA,1,40.6509,-76.3294
Branchland,WV,1,38.2071,-82.1624
Branchport,NY,2,42.6244,-77.2218
Brandenburg,KY,2,37.9765,-86.1659
Brandon,FL,22,27.9378,-82.2861
Brandon,MS,8,32.2203,-89.8623
Brandon,SD,3,43.5801,-96.5818
Brandon,VT,3,43.8405,-73.0923
Brandon (Canada),MB,4,,
Brandt,OH,1,,
Brandywine,MD,1,38.6506,-76.8145
Brandywine,WV,1,38.6434,-79.1709
Branford,CT,7,41.2832,-72.7964
Branson,MO,10,36.6436,-93.2185
Branson ((possibly; unsure)),MO,1,,
Brantford (Canada),ON,8,,
Brantingham,NY,1,43.7050,-75.2432
Brantley,AL,1,31.5573,-86.3175
Brasher Falls,NY,1,44.8524,-74.7436
Brattleboro,VT,6,42.8598,-72.6813
Brawley,CA,6,33.0231,-115.4624
Bray,OK,1,,
Brayton,IA,1,41.5372,-94.9163
Brazil,IN,7,39.5405,-87.1360
Brazoria,TX,1,28.9639,-95.5741
Brea,CA,7,33.9270,-117.8854
Breaks,VA,1,37.2818,-82.2727
Breaux Bridge,LA,3,30.2853,-91.8278
Brechin (Canada),ON,1,,
Breckenridge,CO,4,39.4678,-105.9962
Breckenridge,MN,1,46.3264,-96.4686
Breckenridge,TX,1,32.7360,-98.8358
Brecksville,OH,4,41.3063,-81.6151
Brecksville (near),OH,1,,
Bredenbury (Canada),SK,1,,
Breese,IL,1,38.6502,-89.5286
Breezy Point,MN,1,,
Breinigsville,PA,2,40.5488,-75.6659
Bremen,AL,1,33.9459,-87.0131
Bremen,GA,4,33.7451,-85.1477
Bremen,IN,1,41.4703,-86.1644
Bremen,OH,1,39.6842,-82.4123
Bremerton,WA,65,47.5943,-122.6265
Brenda,AZ,1,,
Brenham,TX,1,30.2022,-96.3707
Brent,AL,1,32.9234,-87.2762
Brentwood,CA,9,37.8998,-121.7351
Brentwood,MO,3,,
Brentwood,NH,4,,
Brentwood,NY,3,40.7818,-73.2524
Brentwood,TN,9,36.0347,-86.7836
Brentwood (contra costa),CA,1,,
Brentwood/Maplewood,MO,1,,
Bretton Woods,NH,1,44.2582,-71.4419
Brevard,NC,1,35.2112,-82.7594
Brevard (near; Lake Toxaway),GA,1,,
Brewer,ME,2,44.7810,-68.7361
Brewerton,NY,1,43.2319,-76.1407
Brewster,MA,8,41.7469,-70.0695
Brewster,NY,2,41.4186,-73.5970
Brewster,OH,1,40.7142,-81.5984
Brewster,WA,2,48.2236,-119.8173
Brewster/Carmel,NY,1,,
Brewton,AL,1,31.1443,-87.0672
Brian Head,UT,1,37.6501,-112.8284
Briarwood (Queens),NY,3,,
Briceville,TN,1,36.1559,-84.3047
Brick,NJ,20,40.0458,-74.1092
Brick Town,NJ,1,,
Brick Township,NJ,1,,
Brick Twp.,NJ,1,,
Brickerville,PA,1,,
Bricktown,NJ,1,,
Bridgenorth (Canada),ON,1,,
Bridgeport,CA,3,38.2892,-119.0701
Bridgeport,CT,26,41.1667,-73.2054
Bridgeport,IL,1,38.7538,-87.7775
Bridgeport,MI,1,43.3432,-83.8432
Bridgeport,NY,2,43.1564,-75.9477
Bridgeport,OH,1,40.0974,-80.7876
Bridgeport,WV,5,39.2801,-80.2338
Bridgeport/Fairfield,CT,1,,
Bridgeport/Trumbull,CT,1,,
Bridgeton,MI,1,,
Bridgeton,MO,8,38.7663,-90.4221
Bridgeview,IL,2,41.7370,-87.8049
Bridgeville,CA,2,40.4114,-123.6178
Bridgeville,DE,1,38.7295,-75.5920
Bridgeville (near Pittsburgh),PA,1,,
Bridgewater,MA,14,41.9706,-70.9732
Bridgewater,NJ,12,40.5928,-74.6163
Bridgewater,PA,2,,
Bridgewater,SD,1,43.5574,-97.4876
Bridgewater,VA,1,38.3713,-79.0380
Bridgewater (Canada),NS,1,,
Bridgewater Corners,VT,1,43.6044,-72.6944
Bridgman,MI,4,41.9393,-86.5689
Bridgton,ME,5,44.0340,-70.7509
Brielle,NJ,1,40.1050,-74.0646
Brier,WA,2,,
Brigantine,NJ,4,39.4075,-74.3765
Brigantine,PA,1,,
Briggsville,AR,1,34.9236,-93.5652
Brigham City,UT,2,41.5110,-112.1433
Bright In,IN,1,,
Brighton,CO,9,39.9429,-104.7995
Brighton,IL,1,39.0334,-90.1406
Brighton,MA,2,42.3488,-71.1551
Brighton,MI,13,42.5777,-83.7528
Brighton (Canada),ON,1,,
Brighton (Ore Lake),MI,1,,
Brighton Plantation,ME,1,,
Brightwaters,NY,1,40.7167,-73.2621
Brightwood,OR,1,45.3363,-121.9941
Brightwood,VA,1,38.4120,-78.1710
Brilliant,OH,1,40.2661,-80.6371
Brimfield,IL,1,40.8146,-89.8601
Brimfield,MA,2,42.1266,-72.2046
Brinklow,MD,3,39.1805,-77.0144
Brinnon,WA,3,47.7390,-123.1709
Bristol,CT,19,41.6814,-72.9405
Bristol,IN,1,41.7108,-85.8151
Bristol,NH,5,43.6180,-71.7801
Bristol,PA,7,40.1165,-74.8437
Bristol,RI,5,41.6785,-71.2710
Bristol,TN,9,36.5374,-82.0760
Bristol,VA,7,36.6146,-82.1748
Bristol,WI,1,42.5537,-88.0245
Bristol,YT,1,,
Bristol tn and bristol va,TN,1,,
Bristolville,OH,1,41.3868,-80.8657
Bristow,OK,3,35.8209,-96.3819
Britt,MN,1,47.6237,-92.6686
Britton,SD,1,45.7907,-97.7091
Broad Brook,CT,2,41.9077,-72.5517
Broaddus,TX,1,31.2496,-94.1918
Broadkill,DE,1,,
Broadlands,VA,2,,
Broadlands/Ashburn,VA,1,,
Broadview,IL,1,41.8565,-87.8554
Broadview Heights,OH,3,41.3141,-81.6734
Broadway,VA,2,38.6511,-78.7967
Brockport,NY,2,43.2100,-77.9143
Brockton,MA,10,42.0785,-71.0384
Brockville (Canada),ON,3,,
Brockville (near) (Canada),ON,1,,
Brodheadsville,PA,2,40.9286,-75.4072
Brodnax,VA,1,36.7241,-77.9805
Brogue,PA,1,39.8693,-76.4528
Broken Arrow,OK,25,35.9677,-95.8150
Bromont (Canada),QC,2,,
Bronco,TX,1,,
Bronxville,NY,1,40.9384,-73.8287
Brook Park,MN,1,45.9722,-92.8785
Brook Park,OH,4,,
Brookfield,CT,5,41.4676,-73.3879
Brookfield,IL,5,41.8255,-87.8466
Brookfield,MO,1,39.8298,-93.0499
Brookfield,WI,14,43.0606,-88.0966
Brookfield (town of),WI,1,,
Brookhaven,MS,1,31.5678,-90.4682
Brookhaven,NY,3,40.7813,-72.9075
Brookhaven,PA,1,39.8687,-75.3915
Brookhaven Hamlet,NY,1,,
Brookings,OR,14,42.2548,-124.1013
Brookings,SD,4,44.3479,-96.8174
Brookings (near),SD,1,,
Brooklet,GA,1,32.3347,-81.6008
Brooklin (Canada),ON,1,,
Brookline,MA,2,42.3221,-71.1313
Brookline,NH,2,42.7491,-71.6733
Brookline Station,MO,3,,
Brooklyn,MI,4,42.0938,-84.2214
Brooklyn Center,MN,6,,
Brooklyn Park,MN,7,,
Brooklyn park,MN,1,,
Brookport,IL,2,37.1401,-88.5835
Brooks,GA,1,33.2636,-84.4619
Brooks,ME,1,44.5660,-69.1642
Brooks,OR,2,,
Brooks (Canada),AB,2,,
Brookside,AL,1,33.6392,-86.9104
Brookston,IN,4,40.6125,-86.9204
Brooksville,FL,14,28.5917,-82.3492
Brooksville (10 miles east of),FL,1,,
Brookville,IN,2,39.3840,-84.9736
Brookville,OH,1,39.8400,-84.4108
Brookville,PA,1,41.1630,-79.0384
Brookville/Trotwood,OH,1,,
Brookwood,AL,1,33.3316,-87.2590
Broomall,PA,1,39.9763,-75.3644
Broomfield,CO,21,39.9209,-105.0770
Broomfield/Lafayette,CO,1,,
Broomfiled- Standley Lake,CO,1,,
Brothers,OR,1,43.5581,-120.2066
Browder,KY,1,37.1963,-86.9989
Brown City,MI,1,43.2269,-82.9893
Brown Deer,WI,1,,
Brownfield,TX,3,33.1146,-102.3352
Browning,MT,3,48.5845,-112.8231
Brownlee (southwest of),NE,1,,
Browns Mills,NJ,2,39.9418,-74.5501
Browns Summit,NC,4,36.2057,-79.6758
Brownsburg,IN,4,39.8652,-86.3828
Brownsdale,MN,1,43.7324,-92.8593
Brownsmills,NJ,1,,
Brownstown,IL,1,39.0051,-88.9472
Brownstown,MI,6,,
Brownstown (south of),IL,1,,
Brownsville,KY,1,37.2305,-86.2611
Brownsville,OR,3,44.3370,-122.9403
Brownsville,PA,2,40.0112,-79.9265
Brownsville,TX,11,25.9676,-97.5475
Brownsville (on I-5 highway),OR,1,,
Brownwood,TX,7,31.7287,-99.0187
Bruce Beach (Canada),ON,1,,
Bruceton Mills,WV,1,39.6066,-79.6355
Bruceville,IN,1,38.7713,-87.4107
Bruin,KY,1,,
Brule,WI,1,46.5730,-91.5473
Brundidge,AL,1,31.6730,-85.7872
Bruneau,ID,2,42.4990,-115.5042
Bruneau/Mountain Home (between),ID,1,,
Brunswick,GA,2,31.1390,-81.4792
Brunswick,MD,3,39.3164,-77.6223
Brunswick,ME,1,43.8931,-69.9723
Brunswick,NC,1,34.2856,-78.7015
Brunswick,NY,2,,
Brunswick,OH,9,41.2389,-81.8316
Brunswick County,NC,1,,
Brush Prairie,WA,2,45.7321,-122.4565
Brushton,NY,1,44.8405,-74.5120
Brusly,LA,1,30.3861,-91.2726
Bryan,OH,1,41.4705,-84.5490
Bryan,TX,12,30.6393,-96.3610
Bryant,AR,8,34.6031,-92.4914
"Bryant Creek, Rippe access",MO,1,,
Bryant/Benton,AR,1,,
Bryceville,FL,1,30.4234,-81.9423
Bryson,CA,1,,
Bryson City,NC,1,35.4456,-83.6425
Buchanan,GA,3,33.8489,-85.1961
Buchanan,MI,2,41.8435,-86.4242
Buckeye,AZ,39,33.2412,-112.7681
Buckeye/Litchfield Park,AZ,1,,
Buckhannon,WV,3,38.9975,-80.1940
Buckhead,GA,4,33.5329,-83.3509
Buckhead Ridge,FL,2,,
Buckhead Ridge (Okeechobee),FL,1,,
Buckhorn,NM,1,32.9066,-108.7435
Buckingham,PA,2,40.3238,-75.0605
Buckingham,VA,3,37.6179,-78.6057
Buckingham County,VA,1,,
Buckley,WA,2,46.9858,-121.8362
Buckner,AR,1,33.3528,-93.4275
Bucks,PA,1,,
Bucks County (city not specified),PA,1,,
Bucks Lake,CA,1,,
Bucksport,ME,4,44.6108,-68.7427
Bucyrus,OH,3,40.8133,-82.9738
Bucyrus (6 mi. SW of),OH,1,,
Buda,TX,7,30.0718,-97.8424
Budd Lake,NJ,2,40.8789,-74.7562
Bude,MS,3,31.4579,-90.8486
Buel,NY,1,,
Buellton,CA,3,34.6510,-120.2228
Buellton (near),CA,1,,
Buena Park,CA,14,33.8417,-118.0078
Buena Vista,CO,3,38.8619,-106.2531
Buena park,CA,1,,
Buffalo,MN,7,45.1900,-93.8371
Buffalo,MO,4,37.6144,-93.1074
Buffalo,NY,70,42.8945,-78.8869
Buffalo,WV,1,38.6046,-81.9095
Buffalo,WY,4,44.2281,-106.6900
Buffalo (Darren Lake theme park),NY,1,,
Buffalo (NE of),NY,1,,
Buffalo (West of; on Highway 90 west),NY,1,,
Buffalo (above),TX,1,,
Buffalo (near),TX,1,,
Buffalo Creek Area Campground,CO,1,,
Buffalo Grove,IL,7,42.1683,-87.9547
Buffalo Pound Provincial Park (Canada),SK,1,,
Buffalo Valley,OK,1,,
Buffalo area (In-flight observation),NY,2,,
Buffalo/Freedom,NY,1,,
Bufod,GA,1,,
Buford,GA,18,34.1046,-84.0037
Buford,WY,3,41.1499,-105.4404
Buhl,ID,7,42.5889,-114.8456
Buhl,MN,2,47.4976,-92.7716
Bullhead,AZ,2,,
Bullhead City,AZ,17,35.1800,-114.4780
Bullhead City/Fort Mohave,AZ,1,,
Bulverde,TX,1,29.7662,-98.4626
Bumpass,VA,2,37.9410,-77.7927
Buna,TX,2,30.4184,-94.0010
Bunker,MO,1,37.3841,-91.2408
Bunkerville,NV,1,36.7219,-114.1350
Bunkie,LA,1,30.8774,-92.1384
Bunn,NC,4,35.9591,-78.2472
Bunnell,FL,4,29.4419,-81.3396
Bunnell/Palm Coast,FL,1,,
Bunnlevel,NC,1,35.3158,-78.8551
Buras,LA,1,29.3218,-89.5172
Burbank,CA,48,34.1995,-118.3044
Burbank,IL,5,41.7454,-87.7704
Burbank,OH,1,40.9404,-82.0030
Burbank,WA,2,46.2068,-118.9123
Burbank (outside of; near Pasco),WA,1,,
Burbank (over area),CA,1,,
Burbank/Glendale,CA,1,,
Burbank/Glendale border,CA,1,,
Burgaw,NC,5,34.5594,-77.9453
Burgeo (Canada),NF,1,,
Burgettstown,PA,1,40.3802,-80.4241
Burgin,KY,1,37.7543,-84.7686
Burien,WA,12,,
Burien (Seattle),WA,1,,
Burke,ID,1,,
Burke,VA,11,38.7935,-77.2718
Burke,VT,1,,
Burkes Garden,VA,1,37.0984,-81.3411
Burkesville,KY,1,36.7784,-85.3722
Burkett,TX,1,31.9980,-99.3104
Burkeville,TX,1,30.9799,-93.6409
Burkeville,VA,1,37.1819,-78.2231
Burl County,NJ,1,,
Burleson,TX,8,32.5310,-97.3061
Burley,ID,4,42.4561,-113.8063
Burlingame,CA,2,37.5678,-122.3694
Burlingame,KS,3,38.7824,-95.8351
Burlington,CO,2,39.3091,-102.2374
Burlington,CT,7,41.7613,-72.9572
Burlington,IA,7,40.8413,-91.1138
Burlington,KY,1,39.0151,-84.7516
Burlington,MA,4,42.5060,-71.2045
Burlington,NC,11,36.0287,-79.4972
Burlington,ND,1,48.2336,-101.5012
Burlington,NJ,5,40.0747,-74.8342
Burlington,VT,15,44.4841,-73.2479
Burlington,WA,6,48.5341,-122.3597
Burlington,WI,6,42.6348,-88.2766
Burlington (Canada),ON,20,,
Burnaby (Canada),BC,6,,
Burnet,TX,1,30.8040,-98.2699
Burneyville,OK,1,33.9624,-97.3278
Burns,OR,2,43.5285,-118.7600
Burns,TN,2,36.0377,-87.2640
Burns Harbor,IN,2,,
Burns Junction,OR,1,,
Burns Junction (100 miles south of),OR,1,,
Burns/Chicamoniny Lake,OR,1,,
Burnside,KY,1,36.9379,-84.5207
Burnstown (Canada),ON,1,,
Burnsville,MN,15,44.7318,-93.2880
Burnsville,NC,10,35.8917,-82.3123
Burr Oak,KS,1,39.9153,-98.3864
Burr Ridge,IL,2,,
Burrton,KS,1,38.0215,-97.6745
Burson,CA,1,38.1840,-120.8975
Burson & Wallace,CA,1,,
Burton,MI,7,43.0261,-83.6055
Burton,OH,1,41.4482,-81.1561
Burton,TX,1,30.1842,-96.6470
Burtonsville,MD,3,39.1064,-76.9252
Burwell,NE,1,41.9145,-98.9909
Busby,MT,1,45.4423,-107.0494
Bush,LA,1,30.5984,-89.9292
Bushkill,PA,6,41.1460,-75.0111
Bushkill Township,PA,1,,
Bushnell,FL,2,28.6906,-82.1646
Butler,IN,3,41.4231,-84.8853
Butler,MD,1,39.5354,-76.7286
Butler,MO,14,38.2762,-94.2829
Butler,NJ,3,40.9880,-74.3798
Butler,OH,1,40.5095,-82.4073
Butler,PA,10,40.9174,-79.9288
Butler,TN,1,36.3276,-81.9956
Butler,WI,2,43.1079,-88.0714
Butler/Unionville,PA,2,,
Butte,AK,2,,
Butte,MT,28,45.9874,-112.5052
Butte & Bozeman (between; enroute),MT,1,,
Buxton,ME,2,43.6330,-70.5351
Buxton,NC,6,35.2552,-75.5523
Buzzards Bay,MA,2,41.7272,-70.5880
Bybee,TN,1,36.1044,-83.1238
Byhaila,MS,1,,
Byhalia,MS,1,34.8477,-89.6678
Byram,MS,2,32.1861,-90.2721
Byrdstown,TN,1,36.5349,-85.1645
Byron,GA,7,32.6471,-83.7901
Byron,IL,3,42.1313,-89.2616
Byron,MN,1,44.0094,-92.6179
Byron,NY,1,43.0744,-78.0738
Byron Center,WA,1,,
Byron Center/Dorr,MI,1,,
CO/WY border (Rocky Mtns.),CO,1,,
Caarthage,MS,1,,
Cabazon,CA,2,33.9071,-116.7814
Cabin creek,WV,1,,
Cabool,MO,2,37.1720,-92.0529
Cabot,AR,5,34.9419,-92.0685
Cabot,PA,2,40.7931,-79.7579
Cabot/Lonoke,AR,1,,
Caddo Mills,TX,2,33.0746,-96.2080
Cadillac,MI,3,44.2570,-85.5479
Cadiz,KY,3,36.8039,-87.9132
Cadiz,OH,4,40.2630,-81.0148
Cadott,WI,1,44.9589,-91.1672
Cahokia,IL,1,,
Cairo,GA,1,30.9590,-84.2003
Cairo,IL,1,37.0613,-89.2625
Cairo,OH,1,40.8287,-84.0859
Cajah's Mountain,NC,1,,
Calabasas,CA,5,34.1211,-118.6646
Calabash,NC,5,33.9116,-78.5955
Caladon (Canada),ON,2,,
Calais,VT,2,44.3787,-72.4973
Calamine,AR,1,,
Calcutta,OH,1,,
Caldwell,ID,17,43.6681,-116.6483
Caldwell,TX,2,30.5252,-96.6919
Caledon (Canada),ON,1,,
Caledon (from Brampton) (Canada),ON,1,,
Caledon/Orangeville (Canada),ON,1,,
Caledonia,MI,1,42.7864,-85.5456
Caledonia,NY,3,42.9269,-77.8263
Caledonia,WI,5,42.8147,-87.9422
Caledonia (Canada),ON,1,,
Caledonia (Village of)),WI,1,,
Caledonia County,VT,1,,
Calera,AL,2,33.1109,-86.7176
Calexico,CA,3,32.6879,-115.5123
Calgary,AB,1,,
Calgary (Calgary),AB,1,,
Calgary (Canada),AB,59,,
Calgary/Regina (2 hrs. east of Calgary)(Canada),SK,1,,
Calhan,CO,1,39.0300,-104.2936
Calhoun,GA,10,34.4959,-84.9485
Calhoun,LA,1,32.5008,-92.3380
Califon,NJ,2,40.7153,-74.8025
California,CA,1,,
California,MD,2,38.2894,-76.5308
California,MO,4,38.6257,-92.5330
California (central part),CA,1,,
California (city unspecified),CA,1,,
California (southern),CA,1,,
California City,CA,2,35.1256,-117.9853
Calimesa,CA,3,33.9818,-117.0506
Calistoga,CA,3,38.6184,-122.5855
Calistoga (2 miles outside),CA,1,,
Callahan,FL,2,30.5817,-81.8137
Callallen/Orange Grove,TX,1,,
Callands,VA,1,36.8058,-79.6423
Callaway,FL,1,,
Callaway,VA,1,37.0509,-80.0605
Calmar (Canada),AB,2,,
Calumet,OK,1,35.5366,-98.1808
Calumet City,IL,1,41.6131,-87.5521
Calumet City,IN,1,,
Calvert,TX,1,31.0106,-96.6656
Camanche,TX,1,,
Camano Island,WA,10,48.1627,-122.4477
Camarillo,CA,10,34.2322,-119.0764
Camas,WA,7,45.6415,-122.3861
Cambria,CA,4,35.5847,-120.9943
Cambria,NY,2,,
Cambria/San Luis Obispo County,CA,1,,
Cambridge,ID,3,44.6593,-116.8040
Cambridge,MA,5,42.3801,-71.1330
Cambridge,MN,3,45.5650,-93.2741
Cambridge,NH,1,,
Cambridge,NY,3,43.0628,-73.4012
Cambridge,OH,2,40.0320,-81.5817
Cambridge (Canada),ON,11,,
Cambridge City,IN,4,39.8376,-85.1782
Cambridge Narrows (Canada),NB,1,,
Cambridge Springs,PA,1,41.7853,-80.0574
Cambrige,IL,1,,
Camby/Indianapolis,IN,1,,
Camden,AR,2,33.6005,-92.9012
Camden,DE,1,,
Camden,ME,3,44.2252,-69.0903
Camden,MI,1,41.7470,-84.6438
Camden,NJ,3,39.9258,-75.1200
Camden,NY,1,43.4010,-75.7774
Camden,SC,2,34.3165,-80.5872
Camden,TN,1,36.0635,-88.0975
Camden Point,MO,1,39.4480,-94.7280
Camdenton,MO,8,38.0455,-92.8027
Cameo,WV,1,,
Cameron,LA,1,29.8714,-93.3660
Cameron,MO,5,39.7547,-94.2623
Cameron,NC,2,35.2879,-79.1818
Cameron,TX,1,30.8206,-96.9189
Cameron,WI,1,45.4050,-91.6640
Cameron,WV,1,39.8173,-80.5945
Cameron (Canada),ON,1,,
"Cameron (near, on highway)",TX,1,,
Cameron Park,CA,3,,
Camillus,NY,1,43.0483,-76.2968
Camp Albert Pike,AR,1,,
Camp Creek,WV,1,37.4967,-81.1469
Camp Douglas,WI,1,43.9662,-90.2981
Camp Hill,PA,3,40.2398,-76.9205
Camp Lake,WI,1,42.5348,-88.1437
Camp Lejeune,NC,1,34.6449,-77.3212
Camp McGregor,NM,1,,
Camp Mckall,NC,1,,
Camp Pendleton,CA,3,33.3683,-117.4140
Camp Seph Mack,PA,1,,
Camp Shelby,MS,1,,
Camp Verde,AZ,6,34.5251,-111.8561
Camp Verde (south of),AZ,1,,
Campbell,CA,16,37.2790,-121.9567
Campbell,OH,4,41.0775,-80.5919
Campbell Hall,NY,1,41.4475,-74.2582
Campbell River (Canada),BC,5,,
Campbellsport,WI,1,43.6303,-88.2905
Campbellsville,KY,4,37.3776,-85.3825
Campground Kendallville,IN,1,,
Camphill,PA,1,,
Campo,CA,1,32.7025,-116.5046
Campo,IA,1,,
Campo Seco,CA,1,38.2366,-120.8618
Campobello,SC,1,35.1027,-82.1331
Campton,KY,1,37.7510,-83.4411
Campton,NH,2,43.9742,-71.5807
Campville,NY,1,,
Camrose (Canada),AB,2,,
Canaan,ME,1,44.7622,-69.5264
Canaan,NH,3,43.6737,-72.0174
Canaan Valley,WV,1,,
Canada,MB,2,,
Canada,NT,1,,
Canada,ON,1,,
Canada (west coast; Alaskan cruise),BC,1,,
Canadensis,PA,1,41.2117,-75.2237
Canadian County,OK,1,,
Canajoharie,NY,5,42.8577,-74.5825
Canal Winchester,OH,7,39.8329,-82.7997
Canandaigua,NY,7,42.8304,-77.3151
Canastota,NY,1,43.0710,-75.7619
Canby,MN,1,44.7034,-96.2725
Canby,OR,13,45.2165,-122.6608
Candle Lake (Canada),SK,2,,
Candler,NC,6,35.5126,-82.7142
Cando (Canada),SK,1,,
Candor,NC,1,35.2563,-79.7998
Candor,NY,1,42.2254,-76.3423
Cane Beds,AZ,1,,
Cane Hill,AR,1,,
Caney,KS,1,37.0619,-95.8751
Canfield,OH,4,41.0139,-80.7728
Caniste,NY,1,,
Canisteo,NY,1,42.2380,-77.5816
Canmore (Canada),AB,4,,
Cannon AFB,NM,1,,
Cannon Beach,OR,6,45.8913,-123.9540
Cannon Falls,MN,5,44.4856,-92.8857
Canoga Park,CA,12,34.1974,-118.6016
Canon,GA,1,34.3476,-83.0814
Canon City,CO,9,38.4777,-105.3695
Canon city,CO,1,,
Canonsburg,PA,4,40.2705,-80.1710
Canterberry,NH,1,,
Canterbury,NH,4,43.3543,-71.5520
Canton,CT,4,41.8631,-72.9134
Canton,GA,17,34.2547,-84.5092
Canton,IL,9,40.5440,-90.0489
Canton,KS,1,38.3842,-97.4178
Canton,MA,5,42.1827,-71.1221
Canton,MI,28,42.3291,-83.4879
Canton,MS,2,32.6268,-90.0229
Canton,NY,4,44.5884,-75.1621
Canton,OH,24,40.7987,-81.3788
Canton,TX,4,32.4954,-95.8963
Canton Township,MI,1,,
Canton/Marietta,GA,1,,
Canton/Plymouth,MI,1,,
Cantonment,FL,1,30.6164,-87.3153
Canyon,TX,2,34.9030,-101.8975
Canyon Country,CA,7,34.4338,-118.4623
Canyon Lake,CA,7,,
Canyon Lake,TX,6,29.8915,-98.2375
Canyonlands National Park,UT,1,,
Canyonville,OR,1,42.9366,-123.2348
Cap Pele/Port Elgin area (Canada),NB,1,,
Capac,MI,1,43.0258,-82.9378
Cape Breton (Canada),NS,2,,
Cape Canaveral,FL,13,28.4024,-80.6149
Cape Carteret (Emerald Isle),NC,1,,
Cape Charles,VA,1,37.2159,-75.9027
Cape Cod,MA,3,,
Cape Coral,FL,71,26.5742,-81.9439
Cape Coral/Punta Gorda,FL,1,,
Cape Elizabeth,ME,2,43.5933,-70.2387
Cape Fair,MO,1,36.7327,-93.5059
Cape Fear,NC,1,,
Cape Girardeau,MO,15,37.3382,-89.5908
Cape Hatteras,NC,1,,
Cape Lookout,NC,1,,
Cape May,NJ,10,38.9858,-74.9062
Cape May (headed toward on Parkway South),NJ,1,,
Cape May Court House,NJ,3,39.1115,-74.8179
Cape May Courthouse,NJ,2,,
Cape May Wildwood Crest,NJ,1,,
Cape May/Wildwood,NJ,1,,
Cape Meares,OR,1,,
Cape Neddick,ME,4,43.2225,-70.6402
Cape Sable Island (Canada),NS,1,,
Cape San Blas,FL,3,,
Capistrano Beach,CA,2,33.4557,-117.6647
Capitol Heights,MD,1,38.9876,-76.8808
Capitol heights,MD,1,,
Capitola,CA,9,36.9759,-121.9539
Capon Bridge,WV,1,39.2808,-78.5156
Captain Cook,HI,2,19.3149,-155.7833
Captiva,FL,22,26.5238,-82.1909
Captiva Island,FL,1,,
Carbon Hill,IL,1,,
Carbonado,WA,1,47.0138,-121.9913
Carbonado (outside of),WA,1,,
Carbondale,CO,1,39.2468,-107.2261
Carbondale,IL,5,37.7354,-89.2047
Carbondale,IN,1,,
Carbondale,PA,3,41.5870,-75.5537
Carbonear/hr Grace (Canada),NF,1,,
Carcross (Canada),YT,1,,
Cardiff,CA,2,,
Cardiff by The Sea,CA,1,,
Cardiff by the Sea,CA,1,,
Carefree,AZ,2,33.8171,-111.9035
Caret,VA,1,38.1034,-77.1012
Carey (15 miles east of; on Hwy 20),ID,1,,
Caribou,CA,1,,
Caribou,ME,1,46.9121,-68.0489
Carl Junction,MO,1,37.1961,-94.5638
Carle Place,NY,2,40.7503,-73.6125
Carleton (Canada),NS,1,,
Carleton Place (Canada),ON,3,,
Carlin,NV,1,40.6376,-116.1199
Carling area (Canada),ON,1,,
Carlinville,IL,4,39.2818,-89.8912
Carlisle,OH,1,,
Carlisle,PA,10,40.2317,-77.1999
Carlisle (Canada),ON,1,,
Carlos,MN,1,45.9984,-95.2556
Carlsbad,CA,39,33.1508,-117.3133
Carlsbad,NM,13,32.3122,-104.2875
Carlsbad/Leucaida,CA,1,,
Carlsbad/Oceanside,CA,1,,
Carlton,MN,1,46.6311,-92.4464
Carlton,NY,1,,
Carlton,OR,5,45.2933,-123.2250
Carlton,TX,1,31.8781,-98.2440
Carlyle,IL,1,38.6288,-89.3237
Carmel,CA,5,36.5567,-121.9158
Carmel,IN,11,39.9727,-86.1771
Carmel,ME,2,44.8004,-68.9990
Carmel,NY,4,41.4313,-73.7256
Carmel Valley,CA,4,36.3926,-121.6276
Carmel-by-the-Sea,CA,2,,
Carmichael,CA,12,38.6232,-121.3281
Carmichaels,PA,1,39.8652,-80.0104
Carmine,TX,2,30.1320,-96.6943
Carnation,WA,2,47.6527,-121.8978
Carnesville,GA,1,34.3585,-83.2974
Carney,MD,2,,
Carneys Point,NJ,1,,
Carnsville,GA,1,,
Caro,MI,2,43.4923,-83.3851
Carol Stream,IL,7,41.9125,-88.1349
Carolina Beach,NC,15,34.0378,-77.9036
Carolina Shores,NC,1,,
Carolina beach,NC,1,,
Caroline (Canada),AB,3,,
Caroline County,VA,1,,
Carpendale,WV,1,,
Carpenteria,CA,1,,
Carpentersville,IL,5,42.1257,-88.2981
Carpinteria,CA,5,34.4132,-119.5167
Carpinteria/Santa Barbara,CA,1,,
Carr (west of),CO,1,,
Carrabassett Valley,ME,1,,
Carrabelle,FL,1,29.8950,-84.6632
Carrboro,NC,7,35.9110,-79.0821
Carrick,PA,1,,
Carrie,KY,2,37.3128,-83.0558
Carrier Mills,IL,1,37.6876,-88.6452
Carriere,MS,4,30.6490,-89.6558
Carrizo,NM,1,,
Carrizozo,NM,1,33.6679,-105.9594
Carroll,IA,2,42.0723,-94.8796
Carroll,OH,1,39.8088,-82.7026
Carroll Valley,PA,3,,
Carrolltom,TX,1,,
Carrollton,GA,3,33.5800,-85.0790
Carrollton,IL,1,39.3259,-90.4295
Carrollton,KY,1,38.6621,-85.2000
Carrollton,MO,1,39.3551,-93.4779
Carrollton,OH,4,40.5841,-81.0683
Carrollton,TX,12,32.9514,-96.8915
Carrollton,VA,1,36.9651,-76.5180
"Carrollton (Hwy. 65, northbound)",MO,1,,
Carrollton/Saginaw,MI,1,,
Carrolton,TX,1,,
Carrying Place (Canada),ON,1,,
Carson,CA,6,33.8262,-118.2589
Carson,MS,1,31.5534,-89.7881
Carson,NV,1,,
Carson,WA,1,45.7919,-121.8553
Carson City,NV,17,39.1484,-119.6629
Carson city,NV,1,,
Carson/Los Angeles City,CA,1,,
Carta Valley,TX,1,,
Carter Lake,IA,2,41.2869,-95.9169
Carteret,NJ,4,40.5816,-74.2327
Cartersville,GA,7,34.1919,-84.8446
Carterville,IL,1,37.7743,-89.0782
Carterville,MO,3,37.1448,-94.4363
Carthage,MO,2,37.1812,-94.2811
Carthage,MS,1,32.8039,-89.5142
Carthage,NC,3,35.3546,-79.4369
Carthage,NY,1,43.9798,-75.5573
Carthage,TN,2,36.2743,-85.9718
Carthage,TX,2,32.1058,-94.3210
Cartwright,ND,1,47.6724,-103.7368
Cartwright,OK,1,33.8787,-96.5803
Caruthersville,MO,1,36.1304,-89.6996
Carver,MA,3,41.8741,-70.7648
Carver,MN,1,44.7060,-93.6888
Cary,IL,6,42.2255,-88.2317
Cary,NC,30,35.7596,-78.7795
Cary,ND,1,,
Casa,AR,1,35.0529,-93.0487
Casa Grande,AZ,20,32.8729,-111.7449
Casa Grande (near),AZ,2,,
Cascabels (near),AZ,1,,
Cascade,CO,1,38.9230,-104.9682
Cascade,IA,1,42.2761,-91.0095
Cascade,ID,1,44.4254,-115.7184
Cascade Locks,OR,2,45.6096,-121.8423
Cascade Mountains (central part),WA,1,,
Casco,ME,1,43.9686,-70.5115
Caseville,MI,2,43.9475,-83.2214
Casey,IA,1,41.5136,-94.5111
Caseyville,IL,3,38.6296,-90.0136
Cashers,NC,1,,
Cashion,AZ,2,33.4316,-112.2959
Cashmere,WA,1,47.5359,-120.4946
Cashton,WI,1,43.7539,-90.7919
Casper,WY,19,43.0662,-106.3940
Cass Lake,MN,3,47.2897,-94.5599
Cass Lake (Driving through),MN,1,,
Cassadaga,NY,2,42.3433,-79.2721
Casselberry,FL,9,28.6616,-81.3139
Casselton,ND,3,46.9480,-97.1581
Castaic,CA,2,34.4864,-118.5786
Castiac,CA,2,,
Castile,NY,1,42.6268,-78.0482
Castle Creek,NY,1,42.2336,-75.8993
Castle Pines,CO,2,,
Castle Rock,CO,8,39.3039,-104.8215
Castle Rock,WA,3,46.2936,-122.8635
Castleton,IN,1,,
Castleton,NY,1,,
Castleton,VT,3,43.6539,-73.1656
Castleton on Hudson,NY,1,,
Castor,LA,1,32.2592,-93.0818
Castro Valley,CA,16,37.7483,-122.1163
Castroville,CA,1,36.7801,-121.7420
Caswell,NC,1,,
Catalina Island,CA,1,,
Catalina Township,AZ,1,,
Cataqua,PA,1,,
Catasauqua,PA,1,40.6562,-75.4682
Cataula,GA,1,32.6611,-84.8784
Cataumet,MA,1,41.6668,-70.6176
Catawba,NC,2,35.6871,-81.0392
Catawba,OH,2,40.0004,-83.6215
Catawba,SC,1,34.8177,-80.9202
Catawissa,MO,2,38.3961,-90.7426
Catawissa,PA,1,40.9082,-76.4012
Catawissa/Burnsville,MO,1,,
Catharpin,VA,2,38.8488,-77.5661
Cathedral City,CA,15,33.8142,-116.4630
Catlettsburg,KY,1,38.3093,-82.6486
Catlettsburg (Louisa area),KY,1,,
Catonsvill,MD,1,,
Catonsville,MD,5,39.2675,-76.7446
Catoosa,OK,2,36.1719,-95.6840
Catskill,NY,2,42.2307,-73.9435
Caufield,MO,1,,
Cavalier,ND,1,48.7966,-97.7532
Cave City,KY,1,37.1246,-85.9088
Cave Creek,AZ,13,33.8319,-111.9436
Cave Spring,GA,1,34.1293,-85.3462
Caviota,CA,1,,
Cayucoc,CA,1,,
Cayucos,CA,5,35.4827,-120.9147
Cazenovia,NY,1,42.9436,-75.8107
Cecil,GA,1,31.0635,-83.3759
Cecil,PA,1,40.3236,-80.1975
Cecil Co. (northeast MD),MD,1,,
Cedar,UT,1,,
Cedar Bluff,AL,1,34.2549,-85.6102
Cedar City,UT,14,37.8114,-113.1721
Cedar Creek,TX,2,30.0991,-97.4781
Cedar Crest,NM,1,35.1318,-106.3804
Cedar Falls,IA,16,42.5170,-92.4912
Cedar Glen,CA,1,34.2446,-117.1628
Cedar Grove,NC,1,36.1957,-79.1700
Cedar Grove,WV,1,38.2097,-81.3672
Cedar Hill,TX,3,32.5899,-96.9690
Cedar Hill/Burnsmill,MO,1,,
Cedar Hills,UT,2,,
Cedar Knolls,NJ,1,40.8223,-74.4563
Cedar Lake,IN,3,41.3736,-87.4644
Cedar Lake (south of),OK,1,,
Cedar Park,TX,13,30.4980,-97.8157
Cedar Point,NC,1,,
Cedar Point/Emerald Isle/Swansboro,NC,1,,
Cedar Rapids,IA,51,41.9747,-91.6554
Cedar Ridge,AZ,1,,
Cedar Springs,MI,4,43.2306,-85.5127
Cedar Valley,UT,1,40.1232,-111.9935
Cedarbrook,NJ,1,,
Cedarbug,WI,1,,
Cedarburg,WI,7,43.3213,-88.0297
Cedarcreek,MO,1,36.5657,-93.0166
Cedaredge,CO,5,38.9583,-107.9011
Cedartown,GA,2,34.0015,-85.2616
Cedarville,CA,3,41.5126,-120.1292
Cedarville,OH,1,39.7456,-83.7622
"Cedarville (4 to 5 miles east of, on U. S. 42)",OH,1,,
Celebration,FL,2,,
Celina,OH,1,40.5386,-84.6287
Celina,TN,3,36.5395,-85.4585
Celina,TX,5,33.3338,-96.7505
Celta,PA,1,,
Cement City,MI,1,42.0443,-84.3448
Centennial,CO,16,,
Center,MO,1,39.4947,-91.5425
Center,TX,2,31.7586,-94.1850
Center Barnstead,NH,2,43.3592,-71.2351
Center City,MN,1,45.4548,-92.7837
Center City,TX,1,,
Center Conway,NH,1,44.0560,-71.0538
Center Line,MI,2,42.4798,-83.0295
Center Moriches,NY,1,40.8016,-72.7908
Center Point,LA,1,31.2657,-92.2005
Center Valley,PA,3,40.5413,-75.4054
Centerburg,OH,2,40.3164,-82.6770
Centereach,NY,5,40.8711,-73.0838
Centereach/Bohemia,NY,1,,
Centerline,MI,1,,
Centerport,NY,4,40.8944,-73.3714
Centerton,AR,4,36.3707,-94.3054
Centertown,MO,1,38.6531,-92.3939
Centerview,OK,1,,
Centerville,GA,2,32.6323,-83.6848
Centerville,IA,4,40.7066,-92.9253
Centerville,ID,1,,
Centerville,IL,1,,
Centerville,MA,5,41.6571,-70.3474
Centerville,ME,1,,
Centerville,MN,1,,
Centerville,OH,13,,
Centerville,PA,1,41.7215,-79.7801
Centerville,TX,1,31.2625,-95.8783
Centerville,UT,3,40.9375,-111.9016
Centrailia,KS,1,,
Central,LA,1,,
Central,SC,1,34.7334,-82.7971
Central,VA,1,,
Central City,KY,1,37.3344,-87.0991
Central City,NE,3,41.1518,-97.9921
Central Islip,NY,2,40.7807,-73.1985
Central Lake,MI,1,45.0842,-85.2608
Central Paint,OR,1,,
Central Point,OR,3,42.4195,-122.9336
Central Square,NY,3,43.3261,-76.1726
Central Valley,NY,1,41.3298,-74.1130
Centralia,IL,2,38.5272,-89.1531
Centralia,MO,3,39.1929,-92.1300
Centralia,NY,1,,
Centralia,WA,14,46.7436,-122.9793
Centre,AL,2,34.1212,-85.5927
Centre Hall,PA,1,40.8254,-77.6921
Centreville,MD,3,39.0574,-76.0249
Centreville,VA,7,38.8598,-77.4666
Centreville (Bib Gish Lake),MI,1,,
Century,FL,1,30.9535,-87.3334
Ceredo,WV,1,38.3969,-82.5522
Ceres,CA,5,37.5566,-120.9641
Ceresco,NE,1,41.0599,-96.6408
Cerrillos,NM,1,35.3737,-106.1409
Cerritos,CA,8,33.8670,-118.0686
Cerritos/Buena Park area,CA,1,,
Chaco Culture National Park,NM,2,,
Chadds Ford,PA,2,39.8562,-75.5940
Chagrin Falls,OH,2,41.4513,-81.3933
Chalfont,PA,5,40.2864,-75.2094
Chalk Hill,TX,1,,
Challis,ID,2,44.3625,-113.9422
Chalmette,LA,3,29.9633,-89.9480
Chamberlain,SD,1,43.7384,-99.2508
Chambersburg,PA,8,39.9311,-77.6586
Chambly (Canada),QC,1,,
Chamita,NM,1,,
Chamois,MO,1,38.6340,-91.7524
Champaign,IL,7,40.1133,-88.2417
Champion,OH,2,,
Champion Heights,OH,1,,
Champlin,MN,2,45.1812,-93.3763
Chandler,AZ,80,33.3241,-111.8769
Chandler,IN,1,38.0729,-87.4042
Chandler (Yuma Co.?),AZ,1,,
Chandler/Casa Grande,AZ,1,,
Chandler/Gilbert/Mesa,AZ,1,,
Chandlerville,OH,1,,
Chanhassen,MN,4,44.8519,-93.5542
Chanhassen (east of),MN,1,,
Channahon,IL,1,41.4298,-88.2027
Channel Islands Point Magu,CA,1,,
Channelview,TX,1,29.7869,-95.1092
Chantilly,VA,7,38.8862,-77.4510
Chantilly/Centreville,VA,1,,
Chanute,KS,2,37.6436,-95.4516
Chapel Hill,NC,9,35.9671,-79.0409
Chapin,SC,3,34.1377,-81.3428
Chapleau (Canada),ON,1,,
Chaplin,CT,1,41.7894,-72.1279
Chapmansboro,TN,1,36.3760,-87.1208
Chapmanville,WV,3,37.9347,-82.0480
Chappaqua,NY,3,41.1738,-73.7714
Chappell Hill,TX,1,30.2060,-96.2172
Chaptico,MD,1,38.3307,-76.7966
Chardon,OH,3,41.5701,-81.1907
Chariton,IA,1,41.0295,-93.2705
Charleroi,PA,4,40.1348,-79.9324
Charles City,IA,2,43.0818,-92.6725
Charles Town,WV,2,39.2579,-77.8626
Charleston,ME,3,45.0714,-69.0341
Charleston,MO,1,36.9146,-89.2743
Charleston,OR,1,,
Charleston,SC,42,32.7776,-79.9419
Charleston,TN,1,35.2653,-84.7774
Charleston,WV,22,38.3495,-81.6318
Charleston (James Island),SC,1,,
Charleston (West of I-77),WV,1,,
Charleston (south),SC,1,,
Charleston ?? (in-flight sighting),SC,1,,
Charlestown,IN,3,38.4540,-85.6025
Charlestown,RI,5,41.3959,-71.6630
Charlestown,WV,1,,
Charlestown (Canada),ON,1,,
Charlestown Township,OH,1,,
Charlevoix,MI,3,45.2714,-85.2327
Charlivox,MI,1,,
Charlotte,MI,5,42.5669,-84.8190
Charlotte,NC,125,35.2287,-80.8458
Charlotte,TN,1,36.2507,-87.2839
Charlotte,TX,1,28.8361,-98.6951
Charlotte (Matthews),NC,1,,
"Charlotte (S of, on I-85)",NC,1,,
Charlotte (outside of; I-485),NC,1,,
Charlotte Court House,VA,1,37.0886,-78.6465
Charlotte Hall,MD,1,38.4476,-76.8234
Charlottesville,IN,1,39.8191,-85.6159
Charlottesville,VA,21,38.0964,-78.5569
Charlottesville/Shadwell,VA,1,,
Charlottesville/Waynesboro,VA,1,,
Charlottetown (Canada),PE,1,,
Charlton,MA,4,42.1318,-71.9732
Charubusco,NY,1,,
Chase City,VA,1,36.8098,-78.4180
Chaska,MN,9,44.8099,-93.6249
Chateauguay (Canada),QC,6,,
Chatfeild,OH,1,,
Chatfield,TX,1,32.2618,-96.3759
Chatham,IL,4,39.6654,-89.7279
Chatham,MA,1,41.6889,-69.9799
Chatham,MI,1,46.2533,-86.8556
Chatham,NJ,4,40.7220,-74.4037
Chatham,VA,3,36.8378,-79.4334
Chatham (Canada),ON,4,,
Chatsworth,CA,8,34.2868,-118.5959
Chatsworth,GA,3,34.7451,-84.7672
Chattanooga,TN,38,35.0459,-85.3097
Chattaroy,WA,2,47.9296,-117.2670
Chautauqua,NY,1,42.2076,-79.4672
Chauvin,LA,1,29.3901,-90.6270
Chazy,NY,1,44.8768,-73.4397
Chazy Lake,NY,1,,
Cheadle (Canada),AB,1,,
Chebanse,IL,1,41.0110,-87.9338
Checotah,OK,3,35.4137,-95.6108
Cheek,TX,1,,
Cheektowaga,NY,7,,
Cheektowaga (Buffalo),NY,2,,
Chehalis,WA,6,46.6211,-122.9933
Chehalis (near; on I-5 south),WA,1,,
Chelan,WA,4,47.9012,-120.1396
Chelmsford,MA,3,42.5878,-71.3518
Chelsea,AL,4,33.3148,-86.6684
Chelsea,MA,2,42.3996,-71.0316
Chelsea,MI,6,42.3175,-84.0247
Cheltenham,PA,1,40.0585,-75.1048
Chemainus (Canada),BC,2,,
Chenango Forks,NY,1,42.2710,-75.8119
Cheney,WA,4,47.4206,-117.6416
Cherokee,AL,1,34.7410,-87.9925
Cherokee,NC,4,35.6069,-83.2301
Cherokee Pass,MO,2,,
Cherokee Villiage,AR,1,,
Cherry,MN,1,,
Cherry Creek,CO,1,,
Cherry Creek State Park,CO,1,,
Cherry Fork,OH,1,38.8875,-83.6147
Cherry Grove,SC,8,,
Cherry Grove (Canada),AB,1,,
Cherry Grove (MCAS),SC,1,,
Cherry Grove Beach,SC,4,,
Cherry Grove/Myrtle Beach,SC,1,,
Cherry Grove/North Myrtle Beach,SC,1,,
Cherry Hill,NJ,15,39.9288,-75.0243
Cherry Spring,PA,1,,
Cherry Springs Community,TX,1,,
Cherry Valley,CA,2,,
Cherry Valley,NY,1,42.7792,-74.7486
Cherry grove,OH,1,,
Cherryvale,KS,1,37.2817,-95.5790
Cherryville,NC,3,35.3991,-81.3938
Cherryville (Canada),BC,1,,
Cherryville/North Brook,NC,1,,
Chesapeak Bay,MD,1,,
Chesapeake,OH,1,38.4816,-82.4646
Chesapeake,VA,32,36.7641,-76.1994
Chesapeake Bay,MD,1,,
Chesapeake Bay (above; south of Annapolis),MD,1,,
Chesapeake Bay Bridge,MD,1,,
Chesapeake Beach,MD,2,38.6599,-76.5392
Chesapeake City,MD,1,39.5027,-75.8504
Chesaprake,VA,1,,
Chesaw,WA,1,,
Chesepeake Bay Bridge Tunnel,VA,1,,
Cheshire,CT,3,41.4989,-72.9011
Cheshire,MA,3,42.5582,-73.1479
Cheshire,OH,1,38.9464,-82.1325
Cheshire,OR,1,44.1796,-123.3667
Chesire,CT,1,,
Chesnee,SC,3,35.1121,-81.9205
Chester,AR,3,35.6845,-94.2616
Chester,CA,2,40.2564,-121.2933
Chester,CT,2,41.4049,-72.4818
Chester,IL,3,37.9455,-89.7873
Chester,NJ,2,40.7847,-74.6824
Chester,NY,2,41.3502,-74.2578
Chester,PA,3,39.8423,-75.3808
Chester,SC,5,34.6986,-81.2585
Chester,SD,1,43.8917,-97.0088
Chester,TX,1,30.9516,-94.4240
Chester,VA,5,37.3359,-77.4572
Chester,WV,4,40.5888,-80.5602
Chester Heights,PA,1,39.8897,-75.4724
Chester Springs,PA,3,40.1011,-75.6407
Chesterfeild,VA,1,,
Chesterfield,MI,3,,
Chesterfield,MO,7,38.6348,-90.6689
Chesterfield,VA,9,37.4088,-77.6085
Chesterfield Matoaca,VA,1,,
Chesterfield/Creve Coeur (St. Louis County),MO,1,,
Chesterland,OH,1,41.5348,-81.3170
Chesterton,IN,7,41.6188,-87.0394
Chestertown,MD,3,39.1932,-76.0754
Chesterville,ME,1,,
Chestnut Hill,MA,1,42.3188,-71.1570
Cheswick,PA,1,40.5803,-79.8453
Chetek,WI,1,45.3002,-91.6139
Cheverly,MD,1,,
Cheviot,OH,1,,
Chevy Chase,MD,1,38.9842,-77.0791
Chewelah,WA,2,48.2745,-117.7452
Cheyenne,WY,17,41.1418,-104.7792
Chicago,IL,240,41.85,-87.65
Chicago,IN,1,,
Chicago (1/2 Hour out of),IL,1,,
Chicago (Albany Park),IL,1,,
Chicago (Lake Shafer),IN,1,,
Chicago (Wood Dale),IL,1,,
Chicago (east of),IL,1,,
Chicago (in-flight sighting),IL,1,,
Chicago (near),IL,1,,
Chicago (over NW Indiana?),IL,1,,
Chicago Heights,IL,7,41.5138,-87.5997
Chicago O'Hare Airport,IL,2,,
Chicago Park,CA,1,39.1737,-120.9320
Chicago Ridge,IL,4,41.7049,-87.7788
Chicago area,IL,1,,
Chicago suburbs (I-294S),IL,1,,
Chicago/Mt. Greenwood,IL,1,,
Chicago/Ohare,IL,1,,
Chicao,IL,1,,
Chichester,PA,1,,
Chickamauga,GA,1,34.7676,-85.3484
Chickasha,OK,1,34.9649,-97.9347
Chico,CA,28,39.7432,-121.8397
Chico,WA,1,,
Chicoe,CA,1,,
Chicopee,MA,8,42.1608,-72.6034
Chicora,PA,1,40.9406,-79.7429
Chiefland,FL,2,29.4083,-82.9069
Chihlowie,VA,1,,
Child/Elkton (Cecil County),MD,1,,
Childress,TX,1,34.3672,-100.3566
Chilhowie/Marion,VA,1,,
Chillicothe,IL,3,40.9048,-89.5291
Chillicothe,MO,1,39.7547,-93.5099
Chillicothe,OH,17,39.3089,-82.9804
Chillicothe/Columbia,MO,1,,
Chilliwack (Canada),BC,13,,
Chilliwack Lake (Canada),BC,1,,
Chilmark,MA,1,41.3302,-70.7615
Chiloquin,OR,3,42.7360,-121.5424
Chiloquin (Canada),ON,1,,
Chilton,WI,2,44.0025,-88.1904
Chimacum,WA,1,47.9755,-122.7810
China Grove,NC,1,35.5756,-80.5962
China Lake,CA,1,,
China Spring,TX,3,31.6717,-97.3330
Chincoteague,VA,2,,
Chincoteague Island,VA,1,37.9420,-75.3263
Chinle,AZ,2,36.1216,-109.5235
Chino,CA,16,33.9539,-117.6477
Chino HIlls,CA,1,,
Chino Hills,CA,9,33.9474,-117.7289
Chino Hills (seen from),CA,1,,
Chino Valley,AZ,3,34.8390,-112.3968
Chinook,MT,1,48.6295,-109.1956
Chipita Park,CO,1,,
Chippewa Falls,WI,4,44.9462,-91.4084
Chiraco Summit,CA,1,,
Chisago,MN,1,,
Chisago City,MN,1,45.3656,-92.8892
Chisholm,MN,1,47.5860,-92.8386
Chittenango,NY,1,43.0581,-75.8660
Chocorua,NH,2,43.8797,-71.2291
Chocowinity,NC,1,35.4425,-77.0755
Choctaw,OK,5,35.4498,-97.2652
Choctaw Beach,FL,1,,
Choctaw County (southeastern OK),OK,1,,
Chrisney,IN,1,38.0324,-86.9485
Christiana,TN,1,35.6963,-86.3721
Christiansburg,VA,5,37.1299,-80.4092
Christmas Valley,OR,2,43.2516,-120.5960
Christopher,IL,3,37.9774,-89.0497
Chugiak,AK,3,61.4235,-149.3299
Chugwater,WY,1,41.7449,-104.8890
Chula Vist,CA,1,,
Chula Vista,CA,26,32.6403,-117.0834
"Chula Vista campground parking lot, Mt. Pinos",CA,1,,
Chuluota,FL,1,,
Chunchula,AL,1,30.9609,-88.1883
Chupadero,NM,1,,
Church Hill,TN,2,36.4932,-82.7304
Church Point,LA,2,30.4182,-92.2199
Churchill,PA,1,,
Churchton,MD,2,38.8073,-76.5280
Churchville,PA,2,,
Churchville,VA,1,38.2533,-79.1511
Churubuaco,IN,1,,
Churubusco,IN,2,41.2334,-85.3460
Cibecue (west of),AZ,1,,
"Cibola County (SR 117, MM32)",NM,1,,
Cibolo,TX,2,29.5672,-98.2232
Cicero,IL,7,41.8402,-87.7587
Cicero,IN,3,40.1354,-86.0383
Cicero,NY,10,43.1651,-76.0687
Cimarron,CO,1,38.3730,-107.5061
Cimarron,KS,1,37.9350,-100.3763
Cincinatti,OH,1,,
Cincinnati,IN,1,,
Cincinnati,KY,1,,
Cincinnati,OH,94,39.1616,-84.4569
Cincinnati (Milford),OH,1,,
Cincinnati (suburbs),IN,1,,
Cinebar,WA,1,46.6009,-122.5392
Cinnaminson,NJ,3,,
Cinti,OH,1,,
Circle City,AZ,1,,
Circle Pines,MN,1,45.1750,-93.1278
Circleville,NY,3,41.5221,-74.3788
Circleville,OH,10,39.5981,-82.9453
Circleville,WV,1,38.6361,-79.5468
Cisco,TX,2,32.3632,-99.0414
Cisco,UT,1,38.9702,-109.3203
Cistern,TX,1,,
Citronelle,AL,3,31.0341,-88.2656
Citrus Heights,CA,17,38.6926,-121.2676
Citrus Springs,FL,3,,
Citrus heights,CA,1,,
City Height,CA,1,,
City of Industry,CA,2,,
City of Rocks National Reserve,ID,1,,
Clackamas,OR,7,45.4114,-122.5273
Clackamas (south of),OR,1,,
Clairemont,CA,1,,
Clairton,PA,1,40.2930,-79.9238
Clam Gulch,AK,1,60.2105,-151.4099
Clancy,MT,1,46.3984,-112.1860
Clanton,AL,1,32.8270,-86.6691
Clare,MI,1,43.8581,-84.7278
Claremont,CA,10,34.1223,-117.7143
Claremont,NH,3,43.3464,-72.3299
Claremore,OK,9,36.3941,-95.5717
Clarence,MO,1,39.7357,-92.2414
Clarence,NY,6,42.9986,-78.6144
Clarence Center,NY,2,43.0462,-78.6304
Clarendon Hills,IL,1,41.7959,-87.9587
Clarinda,IA,1,40.7582,-95.0552
Clarion,PA,2,41.2198,-79.3531
Clark,NJ,7,40.6219,-74.3169
Clark,WA,1,,
Clark,WY,3,,
Clarkdale,AZ,1,34.8250,-112.1497
Clarkdale community (Meridian),MS,1,,
Clarkesville,GA,1,34.7166,-83.5099
Clarklake,MI,4,42.1268,-84.3720
Clarks Green,PA,1,,
Clarks Grove,MN,1,43.7601,-93.3291
Clarks Summit,PA,2,41.4581,-75.7305
Clarksburg,MD,5,39.2656,-77.2863
Clarksburg,MO,1,38.6573,-92.6830
Clarksburg,WV,8,39.2993,-80.3806
Clarksburg/Bridgeport,WV,1,,
Clarksdale,MS,2,34.2045,-90.6938
Clarkson,KY,2,37.4374,-86.1416
Clarkson,NY,1,43.2331,-77.9278
Clarkston,MI,6,42.7238,-83.4157
Clarkston,WA,9,46.2313,-117.2574
Clarkston/Lewiston,WA,1,,
Clarksvile,TN,1,,
Clarksville,AR,5,35.5586,-93.4357
Clarksville,IA,1,42.7931,-92.6724
Clarksville,IN,2,38.3137,-85.7717
Clarksville,MD,1,39.2037,-76.9511
Clarksville,OH,2,39.3988,-83.9864
Clarksville,TN,39,36.5165,-87.3220
Clarksville,TX,1,33.6272,-94.9744
Clarksville (Fort Campbell),KY,1,,
Clarkton,NC,1,34.5053,-78.6653
Clatskanie,OR,2,46.0937,-123.5417
Claverack,NY,1,42.2098,-73.7058
Clawson,MI,4,42.5369,-83.1445
Claxton,GA,1,32.1644,-81.9035
Clay,NY,1,43.1952,-76.2023
Clay Center,KS,1,39.3501,-97.1659
Clay Springs,AZ,1,34.3832,-110.2976
Claymont,DE,2,39.7958,-75.4454
Claysburg,PA,1,40.2939,-78.5314
Clayton,CA,3,37.8946,-121.8720
Clayton,DE,1,39.2584,-75.6949
Clayton,GA,4,34.8952,-83.3800
Clayton,ID,2,44.1661,-114.4989
Clayton,MI,1,41.8591,-84.2123
Clayton,NC,10,35.6146,-78.4579
Clayton,NJ,1,39.6625,-75.0816
Clayton,NM,3,36.2617,-103.3984
Clayton,OH,1,39.8545,-84.3356
Clayton,OK,1,34.5426,-95.4606
Cle Elum,WA,3,47.3467,-120.9987
Clear Creek,WV,1,37.9164,-81.3269
Clear Creek East Resort,NE,1,,
Clear Lake,CA,1,,
Clear Lake,IA,1,43.1324,-93.3789
Clear Lake,IN,1,,
Clear Lake,MN,2,45.4689,-93.9637
Clear Lake,SD,1,44.8033,-96.7587
Clear Lake,TX,2,,
Clear Lake,WA,1,,
Clear Spring,MD,1,39.6534,-77.9015
Clearfield,PA,3,41.0896,-78.4411
Clearfield,UT,2,41.1138,-112.0872
Clearlake,CA,4,38.9726,-122.5405
Clearlake,WA,2,48.4602,-122.2339
Clearlake Oaks,CA,1,39.1365,-122.6329
Clearville,PA,1,39.8444,-78.4687
Clearwater,FL,46,27.9790,-82.7830
Clearwater,KS,1,37.5049,-97.5009
Clearwater,MN,1,45.3933,-94.0606
Clearwater Beach,FL,3,27.9737,-82.8237
Clearwater/Palm Harbor,FL,1,,
Cleburne,TX,5,32.3572,-97.3298
Clementon,NJ,5,39.8048,-75.0060
Clements,AL,1,,
Clements,MD,2,38.3326,-76.7351
Clementsport (Canada),NS,1,,
Clemmons,NC,6,36.0040,-80.3714
Clemson,SC,2,34.6805,-82.8167
Clendenin,WV,2,38.4739,-81.3129
Cleora,OK,1,,
Clermont,FL,29,28.5196,-81.7483
Clermont,GA,3,34.4791,-83.7753
Clermont,IN,1,,
Clermont (near),FL,1,,
Clermont Hwy 27 12 mi.south,FL,1,,
Cleveland,GA,3,34.6175,-83.7759
Cleveland,OH,48,41.4995,-81.6959
Cleveland,OK,5,36.2481,-96.4447
Cleveland,TN,10,35.0929,-84.9155
Cleveland,TX,2,30.2979,-94.9051
Cleveland,UT,2,39.3652,-110.8788
Cleveland,WI,1,43.9139,-87.8056
Cleveland (45NM SSW OF),OH,1,,
Cleveland (Oneida Lake),NY,1,,
Cleveland (SE section),TN,1,,
Cleveland (east side of),OH,1,,
Cleveland (west side of),OH,1,,
Cleveland Heights,OH,3,,
Cleves,OH,1,39.2058,-84.7309
Cliffdell,WA,2,,
Clifford,PA,1,41.6500,-75.5959
Cliffside Park,NJ,1,40.8204,-73.9877
Clifton,CO,2,39.0850,-108.4318
Clifton,ME,1,,
Clifton,NJ,13,40.8783,-74.1425
Clifton,OH,1,39.7966,-83.8161
Clifton,TN,1,35.3991,-87.9387
Clifton Forge,VA,4,37.8241,-79.7488
Clifton Heights,PA,3,39.9225,-75.2944
Clifton Park,NY,5,42.8498,-73.8000
Climax,NC,1,35.8939,-79.6999
Clinchport,VA,1,,
Clines Corner & Moririty (between),NM,1,,
Clinton,AR,2,35.5650,-92.5889
Clinton,CT,9,41.2987,-72.5360
Clinton,IA,5,41.9082,-90.2653
Clinton,IL,1,40.1371,-88.9745
Clinton,IN,1,39.6839,-87.4564
Clinton,MD,2,38.7394,-76.9118
Clinton,ME,1,44.6497,-69.5130
Clinton,MI,4,42.0859,-83.9587
Clinton,MO,4,38.3781,-93.7939
Clinton,MS,8,32.3661,-90.3553
Clinton,MT,2,46.6824,-113.7154
Clinton,NC,1,34.9860,-78.3431
Clinton,NJ,5,40.6563,-74.9262
Clinton,NY,1,43.0528,-75.3711
Clinton,OH,1,40.9396,-81.5625
Clinton,PA,1,40.5107,-80.3456
Clinton,TN,4,36.0888,-84.1718
Clinton,UT,3,,
Clinton,WA,5,47.9562,-122.4177
Clinton,WI,2,42.5587,-88.8815
Clinton (outside of),MO,1,,
Clinton Township,MI,27,42.5547,-82.9166
Clinton Twp,MI,2,,
Clinton-Sherman Airpark,OK,1,,
Clintonville,WI,1,44.6400,-88.7578
Clio,AL,1,31.6932,-85.5620
Clio,MI,3,43.1749,-83.7063
Clive,IA,3,41.6103,-93.7808
Clive,UT,2,,
Cloquet,MN,5,46.7436,-92.5226
Close to Wellton,AZ,1,,
Cloud Croft,NM,1,,
Cloudcroft,NM,1,32.5037,-105.6126
Clover,SC,3,35.0738,-81.2050
Cloverdale,CA,6,38.7788,-123.0436
Cloverdale,IN,1,39.5226,-86.7728
Cloverdale,NM,1,,
Cloverdale,OR,1,45.2202,-123.7353
Cloverly,MD,1,,
Clovis,CA,29,36.8261,-119.6789
Clovis,NM,8,34.5093,-103.2803
Clovis/Fresno,CA,1,,
Clyde,NC,1,35.6493,-82.9728
Clyde,OH,2,41.3212,-82.9487
Clyde (near),NC,1,,
Coachella,CA,1,33.6950,-116.1625
Coachella Valley,CA,2,,
Coal Creek,CO,1,38.3640,-105.1431
Coal Township,PA,1,40.7920,-76.5577
Coal Township (Excelsior),PA,1,,
Coal Valley,IL,1,41.4197,-90.4258
Coaldale,NV,1,,
Coalgate,OK,1,34.5930,-96.2244
Coalhurst (Canada),AB,1,,
Coalinga,CA,9,36.1750,-120.4237
Coalinga (near),CA,1,,
Coaltownship,PA,1,,
Coarsegold,CA,2,37.1946,-119.7264
Coastline/offshore,TX,1,,
Coates,MN,1,,
Coatesville,IN,1,39.6660,-86.6634
Coatesville,PA,3,39.9710,-75.8265
Cobb,CA,2,38.8331,-122.7138
Cobb Island,MD,1,38.2625,-76.8509
Cobb Mountain,CA,1,,
Cobble Hill (Canada),BC,1,,
Cobleskill,NY,2,42.7019,-74.5277
Coboconk (Canada),ON,1,,
Cobourg (Canada),ON,3,,
Coburg,OR,1,,
Cochise County,AZ,1,,
Cochran,GA,1,32.4304,-83.3231
Cochrane (Canada),AB,5,,
Cochrane (Canada),ON,1,,
Cochranville,PA,1,39.8751,-75.9255
Cockeysville,MD,4,39.4919,-76.6650
Cocoa,FL,15,28.3746,-80.7460
Cocoa Beach,FL,12,28.3257,-80.6225
Cocoa Beach,NY,1,,
Cocoa Beach/Cape Canaveral,FL,1,,
Cocoa/Merritt Islands (between),FL,1,,
Coconut Creek,FL,7,26.2318,-80.1225
Cody,WY,9,44.4022,-109.5310
Coeburn,VA,2,36.9724,-82.4908
Coeur D'Alene,ID,1,,
Coeur d'Alene,ID,28,,
Coeur d'Alene Mountains,WA,1,,
Coeur d'Alene/Post Falls,ID,1,,
Coeymans,NY,1,42.4792,-73.7970
Coffeville,AL,1,,
Coffeyville,KS,1,37.0748,-95.5983
Coffman Cove,AK,1,55.9633,-132.8145
Cogan Station,PA,1,41.3354,-77.0604
Cogar,OK,1,,
Cohasset,MA,2,42.2328,-70.8159
Cohasset,MN,1,47.2516,-93.6759
Cohoes,NY,2,42.7869,-73.7237
Coitsville,OH,1,,
Cokeville,WY,1,42.0799,-110.7830
Colbert,WA,1,47.8485,-117.3598
Colby,KS,8,39.3507,-101.0559
Colby (south of),WI,1,,
Colbyville,VT,1,,
Colchester,CT,5,41.5468,-72.3429
Colchester,VT,12,44.5437,-73.1485
Colchester to Essex,VT,1,,
Colcord,OK,1,36.2584,-94.6932
Colcord (6 Miles north of),OK,1,,
Cold Creek,NV,1,,
Cold Lake (Canada),AB,3,,
Cold Spring,KY,1,,
Cold Spring,MN,1,45.4706,-94.4123
Cold Spring,NY,4,41.4471,-73.9092
Cold Spring Harbor,NY,1,40.8612,-73.4534
Cold Springs,KY,1,,
Cold Springs (Bugtussel),AL,1,,
Colden,NY,1,42.6571,-78.6863
Coldwater,MI,8,41.9065,-85.0430
Coldwater,MS,2,34.7065,-89.9726
Coldwater,OH,1,40.4945,-84.6876
Cole Camp,MO,1,38.4482,-93.1817
Colebrook,NH,2,44.8964,-71.3954
Coleman,TX,3,31.8474,-99.4473
Coleman,WI,1,45.0406,-88.0431
Coleman (near),TX,1,,
Coleman area,MI,1,,
Colerain Township,OH,1,,
Coles Point,VA,1,38.1439,-76.6358
Colfax,CA,1,39.0856,-120.9133
Colfax,NC,1,36.0959,-80.0047
Colfax,ND,1,46.4201,-96.8658
Colfax,WA,2,46.8668,-117.4512
Colfax,WI,2,45.0355,-91.7262
Colinga (near),CA,1,,
Collbran/The Flat Tops,CO,1,,
College Grove,TN,1,35.7824,-86.7170
College Park,GA,1,,
College Park,MD,2,39.0013,-76.9257
College Place,WA,5,46.0425,-118.4081
College Point,NY,1,40.7843,-73.8425
College Point (Queens),NY,1,,
College Station,TX,16,30.6079,-96.3240
Collegeville,CA,1,,
Collegeville,PA,5,40.1870,-75.4267
Colley,PA,1,,
Colleyville,TX,4,32.8907,-97.1442
Collierville,TN,2,35.0911,-89.6586
Collingdale,PA,1,,
Collingswood,NJ,3,39.9138,-75.0638
Collingwood (Canada),ON,4,,
Collins,MO,1,37.8740,-93.6901
Collins/Prentis,MS,1,,
Collinsville,CT,1,41.8158,-72.9418
Collinsville,IL,5,38.6913,-89.9706
Collinsville,MS,1,32.5058,-88.8595
Collinsville,OK,1,36.4132,-95.8302
Collville (Canada),BC,1,,
Colmesneil,TX,1,30.9039,-94.3332
Coloma,CA,2,38.7963,-120.8842
Coloma,MI,4,42.2104,-86.3347
Coloma,WI,1,44.0176,-89.5116
Colombiana,AL,1,,
Colonia,NJ,3,40.5913,-74.3146
Colonial Beach,VA,1,38.1776,-76.9847
Colonial Heights,VA,2,37.2880,-77.3891
Colonie,NY,4,,
Colony (1 mile NW of),WY,1,,
Colorado,CO,1,,
Colorado (location unspecified; from Amtrak train),CO,1,,
Colorado (on interstate),CO,1,,
Colorado (southeast part),CO,1,,
Colorado City,CO,3,37.9518,-104.8131
Colorado City,TX,2,32.4014,-100.8943
Colorado Sorings,CO,1,,
Colorado Spring,CO,1,,
Colorado Springs,CO,141,38.8336,-104.8206
Colorado Springs (east of),CO,1,,
Colorado Springs/Fountain,CO,1,,
Colorado Springs/Schriever,CO,1,,
Colorado Springs?,CO,1,,
Colordao Springs,CO,1,,
Colordo Springs,CO,1,,
Colquitt,GA,2,31.1509,-84.7207
Colton,CA,3,34.0266,-117.2653
Colton,NY,1,44.3510,-74.8399
Colton,OR,1,45.1478,-122.3660
Colton's Point,MD,1,,
Colts Neck,NJ,4,40.2860,-74.1628
Columbia,AL,1,31.3364,-85.1626
Columbia,CT,3,41.6910,-72.2978
Columbia,IL,1,38.4459,-90.2120
Columbia,KY,2,37.1177,-85.2643
Columbia,LA,1,32.1139,-92.0899
Columbia,MD,16,39.2044,-76.8814
Columbia,ME,1,,
Columbia,MO,53,38.8822,-92.2523
Columbia,MS,1,31.2168,-89.8109
Columbia,NJ,1,41.0278,-74.9928
Columbia,PA,9,40.0472,-76.4819
Columbia,SC,47,33.9866,-81.0248
Columbia,TN,8,35.6569,-86.9781
Columbia (going toward on 295),MD,1,,
Columbia - Stephens Lake,MO,1,,
Columbia City,IN,6,41.1532,-85.4806
Columbia Falls,MT,5,48.4124,-114.1795
"Columbia, Wrightsville",PA,1,,
Columbia/Mansfield,CT,1,,
Columbia/Savage,MD,1,,
Columbiaville,MI,1,43.1482,-83.3830
Columbus,GA,26,32.4649,-84.9779
Columbus,IN,6,39.1917,-86.0266
Columbus,KS,1,37.1489,-94.8893
Columbus,MI,1,42.8560,-82.6770
Columbus,MS,4,33.4195,-88.4869
Columbus,NC,1,35.2509,-82.1167
Columbus,NE,2,41.4512,-97.3682
Columbus,NJ,2,40.0594,-74.6961
Columbus,NM,1,31.9136,-107.7568
Columbus,OH,146,40.1005,-83.0139
Columbus,TX,3,29.7290,-96.6025
Columbus,WI,2,43.3397,-89.0555
Columbus (New Albany),OH,1,,
Columbus (North),GA,1,,
Columbus (north of),GA,1,,
Columbus (northwest part),OH,1,,
Columia,KY,1,,
Colusa,CA,1,39.2566,-122.0653
Colville,WA,4,48.6539,-117.7496
Colwell,IA,1,43.1557,-92.5945
Comanche,TX,3,31.8951,-98.6576
Comanche (southeast of),TX,1,,
Comer,GA,2,34.0790,-83.0962
Comer's Rock (near),VA,1,,
Comfort,TX,3,29.9689,-98.8217
Commack,NY,7,40.8395,-73.2806
Commack/Kings Park,NY,1,,
Commerce,CA,2,,
Commerce,GA,1,34.2208,-83.4982
Commerce,MI,1,,
Commerce,TX,1,33.2643,-95.9148
Commerce City,CO,9,39.8781,-104.7761
Commerce City to Henderson,CO,1,,
Commerce Cityy,CO,1,,
Commerce Township,MI,4,42.5848,-83.5008
Commerce city,CO,1,,
Como,CO,1,39.2070,-105.8206
Como,NC,1,36.4887,-77.0338
Comox (Canada),BC,2,,
Comptche,CA,2,39.2767,-123.5763
Compton,CA,6,33.8750,-118.2408
Comstock Park,MI,2,43.0808,-85.6797
Comstock Township,MI,1,,
Concan,TX,1,29.4949,-99.6970
Conception Bay South (Canada),NF,1,,
Concord,CA,14,37.9536,-122.0219
Concord,GA,2,33.1005,-84.4545
Concord,MA,2,42.4606,-71.3642
Concord,NC,15,35.3782,-80.5243
Concord,NH,15,43.2305,-71.5480
Concord,OH,1,,
Concord,VT,3,44.4381,-71.8513
Concord (Canada),ON,1,,
Concord - Penecook,NH,1,,
Concord/Harrisburg,NC,1,,
Concord/Walnut Creek,CA,1,,
Concordia,KS,1,39.4803,-97.7046
Concordia,MO,1,38.9584,-93.6033
Concordville (York Beach Area),ME,1,,
Concrete/Lake Tyee,WA,1,,
Condon,MT,1,47.4360,-113.7088
Conestoga,PA,2,39.9278,-76.3884
Congress,AZ,4,34.1540,-112.7697
Congress (near),AZ,1,,
Conifer,CO,1,39.4475,-105.2626
Coniston (Canada),ON,1,,
Conklin,MI,1,43.1298,-85.8548
Conkling Marina,ID,1,,
Connaught (Canada),ON,1,,
Conneaut,OH,4,41.8979,-80.6164
Conneaut Lake,PA,3,41.6079,-80.2904
Conneautville,PA,2,41.7410,-80.3802
Connell,WA,1,46.6790,-118.7424
Connellsville,PA,2,40.0306,-79.5667
Connelsville,PA,1,,
Connersville,IN,8,39.6462,-85.1518
Conover,NC,5,35.7410,-81.2153
Conover,WI,1,46.0452,-89.2597
Conrad,MT,3,48.1649,-111.8390
Conroe,TX,10,30.3040,-95.4313
Consecon (Canada),ON,1,,
Conshohocken,PA,4,40.0798,-75.3076
Continental Divide,NM,2,35.4684,-108.4483
